Provider_Name,Address,County,City,Doses_W1,Doses_W2,Doses_W3,Doses_W4,Doses_W5,Doses_W6,Sum,lon,lat
15RX Pharmacy-2,"11212 State Hwy 151, Plaza-2",BEXAR,San Antonio,NA,NA,NA,100,NA,NA,100,-98.68906403,29.45754433
"23330 Emergency Center, LLC",23330 US 59 North,HARRIS,Kingwood,NA,NA,100,NA,NA,NA,100,-95.24996185,30.05929375
38th Street Pharmacy,711 WEST 38TH STREET C-3,TRAVIS,Austin,NA,200,NA,NA,NA,NA,200,-97.7409668,30.30357552
A&P Pharmacy DBA Roanoke Pharmacy,207 E Byron Nelson Blvd,DENTON,Roanoke,NA,NA,NA,100,NA,NA,100,-97.2257259,33.0039542
A+ Life Style Medical Group,815 Hwy 71 W,BASTROP,Bastrop,NA,NA,NA,NA,100,1000,1100,-97.37531281,30.11062241
Abilene Diagnostic Clinic - Abilene - Antilley,1665 Antilley Road,TAYLOR,Abilene,NA,400,NA,NA,NA,NA,400,-99.7439662,32.3726821
Abilene Regional Medical Center,6250 Hwy 83/84 At Antilley Rd,TAYLOR,Abilene,NA,NA,NA,NA,100,NA,100,-99.73314,32.44874
ABULATORY STRATEGIES PHYSICIAN GROUP,4046 Dowlen Road,JEFFERSON,Beaumont,NA,500,NA,NA,NA,NA,500,-94.1561199,30.1245939
Accelhealth Stephenville,135 River North Blvd,ERATH,Stephenville,NA,NA,NA,NA,100,NA,100,-98.2318292,32.2275385
Access Health Clinic,6402 Louetta Rd Ste 140,HARRIS,Spring,NA,500,NA,NA,NA,NA,500,-95.51578522,30.02541924
Acres Home Health Center,818 Ringold St,HARRIS,Houston,NA,100,NA,NA,NA,NA,100,-95.4189604,29.8751201
"AD Hospital East, LLC",12950 East Frwy,HARRIS,Houston,NA,NA,500,NA,100,NA,600,-95.2004521,29.7707261
Adoue Community Health Network,1111 West Adoue,BRAZORIA,Alvin,NA,100,NA,NA,NA,NA,100,-95.25608826,29.42006111
Advanced Pain Care,2000 S Mays Street,WILLIAMSON,Round Rock,NA,200,NA,NA,NA,NA,200,-97.67532349,30.49091911
Ahf Pharmacy,7777 Forest Lane.,DALLAS,Dallas,NA,NA,NA,100,NA,NA,100,-96.7727356,32.90956497
AIRLINE DOCTORS FAMILY AND PEDIATRIC CLINICS,5990 airline drive,HARRIS,Houston,NA,NA,NA,100,NA,NA,100,-95.38465118,29.85832405
Albertsons Pharmacy,2200 N Yarbrough,EL PASO,El Paso,NA,NA,NA,200,NA,NA,200,-106.3385544,31.78039932
Albertsons Pharmacy 0716,200 West Crawford Street,GRAYSON,Denison,NA,NA,NA,100,NA,NA,100,-96.5377636,33.752101
Albertsons Pharmacy 4133,427 E FM 1382,DALLAS,Cedar Hill,NA,100,NA,NA,NA,NA,100,-96.9377386,32.5930177
Albertsons Pharmacy 671,3317 N Midland Dr,MIDLAND,Midland,NA,NA,NA,100,NA,NA,100,-93.7465242,36.3723342
Albertsons Pharmacy 674,4706 N Midkiff Road,MIDLAND,Midland,NA,NA,NA,100,NA,NA,100,-93.7466432,36.3700259
Albertsons Pharmacy 676,2751 N County Rd W,ECTOR,Odessa,NA,NA,NA,100,NA,NA,100,-93.7692434,36.3699701
Albertsons Pharmacy 677,1350 E 8th St,ECTOR,Odessa,NA,NA,NA,200,NA,NA,200,-93.8335286,36.3694888
Albertsons Pharmacy 678,3121 Sunset Dr,TOM GREEN,San Angelo,NA,NA,NA,100,NA,NA,100,-93.8443781,36.1903532
Aldine Health Center,4755 Aldine Mail Route Rd,HARRIS,Houston,NA,NA,NA,NA,100,NA,100,-93.861653,36.0516278
Aledo Family Medicine,317 FM 1187 North,PARKER,Aledo,NA,500,NA,NA,NA,NA,500,-93.8630905,36.0504117
Allen Fire Department,310 Century Pkwy,COLLIN,Allen,NA,200,NA,300,NA,2000,2500,-93.9358085,36.0236526
Allison Cancer Center,400 Rosalind Grover Pkwy,MIDLAND,Midland,NA,NA,NA,100,NA,NA,100,-93.9358439,35.9039679
Altus Baytown Hospital,14120 FM 2100,HARRIS,Crosby,NA,500,NA,NA,NA,NA,500,-93.9613011,35.9035747
Altus Baytown Hospital,6501 Garth Rd,HARRIS,Baytown,NA,400,NA,NA,NA,NA,400,-93.968279,35.8649525
Altus Baytown Hospital - Kingwood,1120 Kingwood Dr,HARRIS,Kingwood,NA,NA,200,NA,NA,NA,200,-93.9747903,35.8649393
Altus Baytown Hospital - Porter,22678 Hwy. 59,MONTGOMERY,Porter,NA,NA,200,NA,NA,NA,200,-93.9863718,35.8645507
Altus Houston Hospital,7215 Fairmont Pkwy,HARRIS,Pasadena,NA,500,NA,NA,NA,NA,500,-93.9887342,35.666362
"Alvin R Gebert, MD, PA",6130 W Parker Rd,COLLIN,Plano,NA,100,NA,NA,NA,NA,100,-93.9887342,35.6599214
Amarillo Medical Specialists Llp,1215 S Coulter St Ste 400,POTTER,Amarillo,NA,300,NA,NA,NA,NA,300,-93.9962955,35.5724481
Amarillo Public Health Department,1000 Martin Rd,POTTER,Amarillo,NA,NA,NA,NA,5000,NA,5000,-94.0013578,35.5508775
"America's ER Site 001, LLC",32784 FM 2978 RD,MONTGOMERY,Magnolia,NA,400,NA,NA,NA,NA,400,-94.0063821,35.5388256
Americas ER Site 002 LLC,13902 Spring Cypress Rd,HARRIS,Cypress,NA,100,NA,NA,NA,NA,100,-94.0107118,35.44001
Amigos Pharmacy 503,112 North University Avenue,LUBBOCK,Lubbock,NA,NA,NA,100,NA,NA,100,-94.0144777,35.4392729
Amigos Pharmacy 508,2403 N Columbia St,HALE,Plainview,NA,NA,NA,100,NA,NA,100,-94.0167909,35.3389739
Amigos Pharmacy 524,3300 I-40 East,POTTER,Amarillo,NA,NA,NA,100,NA,NA,100,-94.02062,35.2482168
Amistad Community Health Center,1533 S Brownlee Blvd Ste 100,NUECES,Corpus Christi,NA,1300,NA,200,NA,NA,1500,-94.046913,35.2422731
Angleton Primary Care,2020 East Mulberry St,BRAZORIA,Angleton,NA,NA,NA,NA,NA,100,100,-94.0481498,35.2246226
"Annie & Chau, LP",10603 Bellaire Blvd,HARRIS,Houston,NA,500,NA,NA,NA,NA,500,-94.0510303,35.2246226
Argenal Pediatrics And Family Care,516 N Shary Rd,HIDALGO,Mission,NA,NA,NA,100,NA,NA,100,-94.0526597,35.2226685
Arise Austin Medical Center,3003 Bee Cave Road,TRAVIS,Austin,NA,NA,200,NA,NA,NA,200,-94.070983,35.2226589
Arlington Fire Department,620 W Division St.,TARRANT,Arlington,NA,3000,NA,500,NA,5000,8500,-94.0754547,35.2145616
Arthur S Hernandez Md,88 Briggs St,BEXAR,San Antonio,NA,NA,NA,100,NA,NA,100,-94.0754547,35.2017103
Ascension Medical Group Georgetown,3721 Williams Drive,WILLIAMSON,Georgetown,NA,NA,NA,100,NA,NA,100,-94.0773638,35.2007889
Ascension Medical Group Seton Primary Care,15808 Ranch Road 620 N,WILLIAMSON,Austin,NA,100,NA,NA,NA,NA,100,-94.0875947,35.2007115
Ascension Providence Hospital,6901 Medical Pkwy,MCLENNAN,Waco,NA,NA,NA,NA,1500,NA,1500,-94.0953834,35.1997117
Ascension Seton Bastrop,630 W. Sh 71,TRAVIS,Bastrop,NA,NA,100,NA,NA,NA,100,-94.1029336,35.1986478
Ascension Seton Health Center Buda,5235 Overpass Rd,HAYS,Buda,NA,NA,NA,NA,100,NA,100,-94.1097457,35.198228
Ascension Seton HIghland Lakes,3201 S. Water Street,BURNET,Burnet,NA,200,100,NA,100,NA,400,-94.1183154,35.198228
Ascension Seton Highland Lakes Burnet Clinic,200 John W Hoover Pkwy,BURNET,Burnet,NA,NA,NA,100,NA,NA,100,-94.1196357,35.196307
Ascension Seton Northwest,11113 Research Blvd,TRAVIS,Austin,NA,700,NA,NA,NA,NA,700,-94.1197861,35.1921382
Ascension Seton Southwest,7900 FM 1826,TRAVIS,Austin,NA,200,NA,NA,NA,NA,200,-94.1222761,35.1864001
Ashley Pediatrics Day And Night Clinic,17927 Washington Palm Dr,HIDALGO,Penitas,NA,NA,NA,100,NA,NA,100,-94.1252309,35.1848821
Ashley Pediatrics Day And Night Clinic La Joya,328 A E. Expressway 83,HIDALGO,La Joya,NA,NA,NA,100,NA,NA,100,-94.1261502,35.1843644
ASPG dba CHRISTUS Promptu Urgent Care,11823 Culebra Rd,BEXAR,San Antonio,NA,1000,NA,NA,NA,NA,1000,-94.1286683,35.1789569
ASPG dba CHRISTUS Promptu Urgent Care - New Braunfels,1659 W State Highway 46,COMAL,New Braunfels,NA,2000,NA,NA,NA,NA,2000,-94.1319032,35.1771394
Atascosa Health Center Inc.,310 W Oaklawn Rd,ATASCOSA,Pleasanton,NA,NA,NA,NA,NA,100,100,-94.1321453,35.1718249
Atkins Express Pharmacy,2607 Hwy 281 N,BURNET,Marble Falls,NA,NA,NA,100,NA,NA,100,-94.1330036,35.1669628
"ATKINS PHARMACY SERVICES, INC.",701 THIRD ST,BURNET,Marble Falls,NA,200,NA,NA,NA,NA,200,-94.1356343,35.1617868
Aubrey Pharmacy,701 S Highway 377,DENTON,Aubrey,NA,100,NA,100,NA,NA,200,-94.1634445,35.1598447
"Aurora Concepts, PLLC",233 Hurst Street,SHELBY,Center,NA,100,NA,100,NA,NA,200,-94.1667914,35.1461135
AUSTIN EAR NOSE AND THROAT CLINIC,3705 Medical Pkwy,TRAVIS,Austin,NA,500,NA,NA,NA,NA,500,-94.1701341,35.1342698
AUSTIN EAR NOSE AND THROAT CLINIC,4315 JAMES CASEY,TRAVIS,Austin,NA,500,NA,NA,NA,NA,500,-94.1812159,35.1094532
"Austin Family Allergy & Asthma, PA",10801-2 N. Mopac Expwy,TRAVIS,Austin,NA,100,NA,NA,NA,NA,100,-94.1864175,34.9839855
Austin Public Health,15 Waller Street,TRAVIS,Austin,NA,1000,NA,NA,12000,12000,25000,-94.187738,34.9454381
Austin Public Safety Wellness Center,517 S Pleasant Valley Rd,TRAVIS,Austin,NA,1300,NA,200,NA,NA,1500,-94.187798,34.8487116
Austin Radiological Association,12554 Riata Vista Circle,TRAVIS,Austin,NA,500,NA,NA,NA,NA,500,-94.1979229,34.8487116
Austin Regional Clinic-Buda,3420 Fm 967 Ste B100,HAYS,Buda,NA,800,NA,NA,NA,NA,800,-94.2210815,34.8395595
Austin Regional Clinic - Anderson Mill,10401 Anderson Mill Rd Ste 110b,TRAVIS,Austin,NA,500,NA,NA,NA,NA,500,-94.3118695,34.8395595
Austin Regional Clinic - Bee Cave,15801 W Highway 71 Bldg 1,TRAVIS,Bee Cave,NA,500,NA,NA,NA,NA,500,-94.3144192,34.8204544
Austin Regional Clinic - Cedar Park,801 E Whitestone Blvd Ste C,WILLIAMSON,Cedar Park,NA,500,NA,NA,NA,NA,500,-94.3453944,34.6443676
Austin Regional Clinic - Far West,6835 Austin Center Blvd,TRAVIS,Austin,NA,300,NA,NA,NA,NA,300,-94.3468765,34.5561362
Austin Regional Clinic - Hutto,151 Exchange Blvd Ste 500,WILLIAMSON,Hutto,NA,500,NA,NA,NA,NA,500,-94.3486592,34.5359752
Austin Regional Clinic - Kelly Lane,2100 Autumn Slate Dr Ste 150,TRAVIS,Pflugerville,NA,500,NA,NA,NA,NA,500,-94.3508129,34.5098092
Austin Regional Clinic - Kyle,4100 Everett Dr Ste 400,HAYS,Kyle,NA,300,NA,NA,NA,NA,300,-94.3524988,34.4728828
Austin Regional Clinic - Leander,901 Crystal Falls Pkwy Ste 103,WILLIAMSON,Leander,NA,500,NA,500,NA,NA,1000,-94.3532213,34.4393644
Austin Regional Clinic - Manor,11300 Us Highway 290 E Ste 230 Bldg 2,TRAVIS,Manor,NA,500,NA,NA,NA,NA,500,-94.3690392,34.4392524
Austin Regional Clinic - Pflugerville,15803 Windermere Dr Ste 103,TRAVIS,Pflugerville,NA,500,NA,NA,NA,NA,500,-94.3691998,34.4343173
Austin Regional Clinic - Quarry Lake,4515 Seton Center Pkwy Ste 220,TRAVIS,Austin,NA,500,NA,500,NA,NA,1000,-94.3699086,34.2966984
Austin Regional Clinic - Round Rock,940 Hesters Crossing Rd,WILLIAMSON,Round Rock,NA,300,NA,NA,NA,NA,300,-94.3766286,34.2963475
Austin Regional Clinic - Sendero Springs,1025 Sendero Springs Dr Ste 120,WILLIAMSON,Round Rock,NA,500,NA,NA,NA,NA,500,-94.3824138,34.2924878
Austin Regional Clinic - South,3828 S 1st St,TRAVIS,Austin,NA,300,NA,NA,NA,NA,300,-94.3976533,34.2339696
Austin State Hospital,NA,TRAVIS,Austin,975,NA,NA,NA,NA,NA,975,-94.4009368,34.2314614
"AV Rehab, LLC",2902 S. 77 Sunshine Strip,CAMERON,Harlingen,NA,100,NA,NA,NA,NA,100,-94.4067158,34.2213093
Avenue 360 Health And Wellness Humble,9816 Memorial Blvd Ste 120,HARRIS,Humble,NA,NA,NA,100,NA,NA,100,-94.4157976,34.2065762
Bacliff Community Health Center,1136 Grand Ave,GALVESTON,Bacliff,NA,NA,NA,NA,NA,100,100,-94.4292421,34.2015117
Ballinger Hospital Clinic,2001 Hutchins Ave Ste C,RUNNELS,Ballinger,NA,200,NA,NA,NA,NA,200,-94.4779844,34.2002969
Ballinger Memorial Hospital District,608 Ave B,RUNNELS,Ballinger,NA,NA,100,NA,NA,NA,100,-94.5182139,34.1588708
Bandera Family Health,7579 N Loop 1604 W Ste 100,BEXAR,San Antonio,NA,100,NA,NA,NA,NA,100,-94.5760192,34.1581176
Baptist Hospitals of Southeast Texas,3080 College St,JEFFERSON,Beaumont,975,975,100,NA,NA,NA,2050,-94.588723,34.157003
Baptist Medical Center,111 Dallas Street,BEXAR,San Antonio,975,975,NA,NA,NA,NA,1950,-94.6367581,34.1552699
Bastrop Family Practice,275 Jackson St,BASTROP,Bastrop,NA,NA,NA,NA,NA,100,100,-94.6384165,34.1531049
Bay Colony Pediatrics,2251 Fm 646 Rd W,GALVESTON,Dickinson,NA,NA,NA,100,NA,NA,100,-94.6392625,34.1530805
Baylor College Of Medicine,1 Baylor Plz Stop Bcm-667,HARRIS,Houston,NA,3000,NA,1000,NA,NA,4000,-94.6464476,34.1269334
Baylor Orthopedic And Spine Hospital At Arlington,707 Highlander Blvd,TARRANT,Arlington,NA,200,100,NA,NA,NA,300,-94.6488428,34.0901827
Baylor Scott & White Hospital - Grapevine,NA,TARRANT,Grapevine,975,NA,NA,NA,NA,NA,975,-94.6488428,34.0190559
Baylor Scott & White Medical Center - College Station,700 Scott And White Dr,BRAZOS,College Station,NA,NA,200,NA,NA,NA,200,-94.6537532,33.98516
Baylor Scott & White Medical Center - College Station,NA,BRAZOS,College Station,975,NA,NA,NA,NA,NA,975,-94.6553861,33.9841507
Baylor Scott & White Medical Center - Plano,4700 Alliance Blvd,COLLIN,Plano,NA,700,100,NA,1000,975,2775,-94.6553861,33.9746171
Baylor Scott & White Medical Center Sunnyvale,231 S Collins Rd,DALLAS,Sunnyvale,NA,400,100,NA,NA,NA,500,-94.6629916,33.9644501
Baylor Scott & White Pharmacy #101,3600 Gaston Avenue,DALLAS,Dallas,NA,900,NA,NA,NA,NA,900,-94.6630784,33.9289141
Baylor Scott And White All Saints Medical Center - Fo,1400 8th Ave,TARRANT,Fort Worth,NA,NA,900,NA,NA,NA,900,-94.6638455,33.9202138
Baylor Scott And White All Saints Medical Center - Fort Worth,NA,TARRANT,Fort Worth,975,NA,NA,NA,NA,NA,975,-94.6708945,33.9136023
Baylor Scott and White Healthcare,2005 W. Wallace,SAN SABA,San Saba,NA,100,NA,NA,NA,NA,100,-94.7170021,33.9136023
BAYLOR SCOTT AND WHITE HQ,2401 S 31st Street,BELL,Temple,NA,NA,NA,1950,NA,NA,1950,-94.720801,33.9119389
Baylor Scott and White Hsptl Grapevine,1650 W College St Ste 119,TARRANT,Grapevine,NA,NA,100,NA,NA,NA,100,-94.7224176,33.9028141
Baylor Scott and White MC Mckinney,5252 W University Dr,COLLIN,McKinney,NA,800,100,NA,100,NA,1000,-94.7246001,33.9026335
Baylor Scott And White Medical Center - Centennial,12505 Lebanon Rd,COLLIN,Frisco,NA,300,100,NA,100,NA,500,-94.7274698,33.9021285
Baylor Scott And White Medical Center - Irving,NA,DALLAS,Irving,975,NA,NA,NA,NA,NA,975,-94.7295537,33.8769943
Baylor Scott And White Medical Center - Lake Pointe,6800 Scenic Dr,ROCKWALL,Rowlett,NA,700,NA,NA,NA,NA,700,-94.7299355,33.8765846
Baylor Scott And White Medical Center - Waxahachie,2400 N. I-35e,ELLIS,Waxahachie,NA,700,NA,NA,NA,NA,700,-94.729937,33.8752761
Baylor Scott And White Round Rock Family Medicine,425 University Blvd Ste 500,WILLIAMSON,Round Rock,NA,500,NA,NA,NA,NA,500,-94.730216,33.8737498
Baylor Scott White Health MC Round Rock,300 University Blvd,WILLIAMSON,Round Rock,NA,NA,400,NA,NA,NA,400,-94.7302811,33.8729248
Baylor Scott White Health MC Round Rock,NA,WILLIAMSON,Round Rock,975,NA,NA,NA,NA,NA,975,-94.7304071,33.8726177
Baylor Scott White Institute Rehabilation Frisco,2990 Legacy Drive,DENTON,Frisco,NA,NA,300,NA,NA,NA,300,-94.7304434,33.8648127
Baylor Scott White Med Ctr Hillcrest,100 Hillcrest Medical Blvd,MCLENNAN,Waco,NA,NA,600,NA,NA,NA,600,-94.7304434,33.8418279
Baylor Scott White Med Ctr Hillcrest,NA,MCLENNAN,Waco,975,NA,NA,NA,NA,NA,975,-94.7310547,33.8418279
Baylor Surgicare at Blue Star LLC,3800 Gaylord Parkway,DENTON,Frisco,NA,NA,NA,NA,100,NA,100,-94.7314034,33.8155821
Baylor University Med Cntr Dallas,3500 Gaston Ave,DALLAS,Dallas,NA,NA,2975,NA,1000,4875,8850,-94.7384854,33.8143203
Baylor University Med Cntr Dallas,NA,DALLAS,Dallas,2925,NA,NA,NA,NA,NA,2925,-94.7387886,33.809133
Baylor University Student Health Services,209 Speight Ave Fl 2,MCLENNAN,Waco,NA,200,NA,100,NA,NA,300,-94.7398397,33.7776487
BaylorScottandWhiteMedicalCenter-Temple,2401 S 31st Street,BELL,Temple,3900,975,500,NA,NA,NA,5375,-94.7410526,33.7652266
Bayside Clinic,621 S. Ross Sterling,CHAMBERS,Anahuac,NA,NA,NA,NA,NA,100,100,-94.741184,33.7599797
Beaumont Elite Emergency Center LLC,4004 College Street,JEFFERSON,Beaumont,NA,NA,NA,NA,100,NA,100,-94.7421221,33.7520965
Beaumont Family Practice,6450 Folsom Dr,JEFFERSON,Beaumont,NA,500,NA,NA,NA,NA,500,-94.7482092,33.719647
Beaumont Health Department,3040 College St,JEFFERSON,Beaumont,NA,NA,100,NA,NA,NA,100,-94.7501703,33.7115026
Bell County Public Health District,509 S 9th St,BELL,Temple,NA,NA,NA,NA,3900,NA,3900,-94.752086,33.7111463
"Bellaire Dermatology Associates, PA",6565 West Loop South,HARRIS,Bellaire,NA,500,NA,300,NA,NA,800,-94.7541222,33.7101281
Bellmead Community Clinic,3400 Bellmead Dr,MCLENNAN,Waco,NA,NA,NA,NA,NA,100,100,-94.7544567,33.6877273
Bells Hill Community Clinic,911 S 20th St,MCLENNAN,Waco,NA,NA,NA,NA,NA,100,100,-94.7550836,33.6767819
Bellville Medical Center,44 N. Cummings St.,AUSTIN,Bellville,NA,NA,NA,100,100,NA,200,-94.7731229,33.6700111
BELTLINE SURGERY CENTER,2858 N. BELTLINE ROAD,DALLAS,Sunnyvale,NA,NA,NA,100,NA,NA,100,-94.7731229,33.669802
Ben Taub General Hospital,1504 Taub Loop,HARRIS,Houston,1950,975,2075,1950,300,NA,7250,-94.773173,33.6623354
BERG & MINIGUTTI PLLC,8000 ELDORADO PKWY,COLLIN,McKinney,NA,500,NA,200,NA,NA,700,-94.7743823,33.6607887
Berkeley Eye Center,3100 Weslayan,HARRIS,Houston,NA,500,NA,NA,NA,NA,500,-94.7771886,33.6606244
Best Value Hometown Pharmacy,1702 Santa Fe Dr,PARKER,Weatherford,NA,NA,NA,100,NA,NA,100,-94.781902,33.6585448
Best Value Renshaw Pharmacy,800 Medical Center Dr Ste A,WISE,Decatur,NA,NA,NA,200,NA,NA,200,-94.7843701,33.657611
Best Value Ridglea Pharmacy,5932 Lovell Ave,TARRANT,Fort Worth,NA,NA,NA,100,NA,NA,100,-94.7955386,33.6560747
Best Value Royce's Pharmacy,502 N Main St,JOHNSON,Cleburne,NA,NA,NA,100,NA,NA,100,-94.7956912,33.6558617
Best Value West Pharmacy,124 W Renfro,JOHNSON,Burleson,NA,NA,NA,100,NA,NA,100,-94.7973193,33.6521566
Big Bend Regional Health Center,2600 Highway North 118,BREWSTER,Alpine,NA,NA,NA,NA,200,NA,200,-94.797547,33.6463557
Big Spring State Hospital,1901 N Us Highway 87,HOWARD,Big Spring,NA,500,100,NA,200,NA,800,-94.799064,33.6429811
Bis Community Clinic,22140 Highway 90 N,GRIMES,Bedias,NA,NA,NA,NA,100,NA,100,-94.8010428,33.6420768
Bluitt-Flowers Clinic,303 E Overton Rd,DALLAS,Dallas,NA,NA,NA,NA,200,NA,200,-94.8038761,33.6411989
Bowen Pediatrics,810 E Redd Rd Ste D,EL PASO,El Paso,NA,NA,NA,200,NA,NA,200,-94.8045927,33.6372856
Brady Medical Clinic,2010 Nine Rd,MCCULLOCH,Brady,NA,NA,NA,200,NA,NA,200,-94.806049,33.6253892
Brazoria County Health Department,434 E Mulberry St,BRAZORIA,Angleton,NA,NA,NA,100,NA,700,800,-94.8083286,33.6250472
Brazoria County Health Department-Lake Jackson,202 Peach St,BRAZORIA,Lake Jackson,NA,NA,NA,100,NA,300,400,-94.8238749,33.617132
BRAZORIA COUNTY HEALTH DEPT ALVIN,260 GEORGE ST,BRAZORIA,Alvin,NA,300,NA,NA,NA,700,1000,-94.8265473,33.60984
"Brazoria County Health Dept., Pearland",2436 South Grand Blvd.,BRAZORIA,Pearland,NA,NA,NA,NA,NA,300,300,-94.8285669,33.6074483
Brazos County Health And Wellness,300 E Wm J Bryan Pkwy Ste 200,BRAZOS,Bryan,NA,NA,NA,100,NA,NA,100,-94.8491468,33.6027879
Breckenridge Medical Center,101 S. Hartford,STEPHENS,Breckenridge,NA,NA,NA,100,NA,NA,100,-94.8539676,33.6026591
Brenham Drug Partners,2105 S Day Street,WASHINGTON,Brenham,NA,NA,NA,100,NA,NA,100,-94.86357,33.5991367
Briggs Family Medicine,910 Gruene Rd,COMAL,New Braunfels,NA,100,NA,NA,NA,NA,100,-94.8687973,33.592158
Brookshire's Pharmacy #019,1105 W South Commerce St,VAN ZANDT,Wills Point,NA,100,NA,NA,NA,NA,100,-94.8910695,33.5916902
Brookshire's Pharmacy 008,747 Us Highway 259 N,GREGG,Kilgore,NA,100,NA,NA,NA,NA,100,-94.9294942,33.5902546
Brookshire's Pharmacy 011,807 E Tyler St,HENDERSON,Athens,NA,100,NA,NA,NA,NA,100,-94.9295754,33.5901444
Brookshire's Pharmacy 013,809 Gilmer Rd.,HOPKINS,Sulphur Springs,NA,100,NA,100,NA,NA,200,-94.9346872,33.5901444
Brookshire's Pharmacy 015,1478 N Beaulah St,WOOD,Hawkins,NA,100,NA,100,NA,NA,200,-94.9396152,33.5897939
Brookshire's Pharmacy 9,2020 Roseland Blvd,SMITH,Tyler,NA,100,NA,NA,NA,NA,100,-94.9449646,33.5897145
Brookshire Brothers Pharmacy #64,34692 Us Highway 96 S,JASPER,Buna,NA,100,NA,NA,NA,NA,100,-94.947701,33.5885517
Brookshire Brothers Pharmacy #9,5249 Franz Rd,HARRIS,Katy,NA,500,NA,NA,NA,NA,500,-94.9495383,33.5880703
Brookshires Pharmacy 002,706 W Main St,VAN ZANDT,Van,NA,100,NA,NA,NA,NA,100,-94.9594413,33.5880703
Brookshires Pharmacy 005,1203 Us Highway 380,WISE,Bridgeport,NA,100,NA,100,NA,NA,200,-94.9692243,33.5880569
Brookshires Pharmacy 014,925 Clarksville St,LAMAR,Paris,NA,100,NA,100,NA,NA,200,-94.9700768,33.5845777
Brookshires Pharmacy 023,1400 W. Moore St.,KAUFMAN,Terrell,NA,100,NA,100,NA,NA,200,-94.9715384,33.5790961
Brookshires Pharmacy 028,2734 E 5th St,SMITH,Tyler,NA,100,NA,NA,NA,NA,100,-94.9717413,33.5790961
Brookshires Pharmacy 030,2107 S Loop 256,ANDERSON,Palestine,NA,100,NA,NA,NA,NA,100,-94.973245,33.5782195
Brookshires Pharmacy 031,1224 N Pacific St,WOOD,Mineola,NA,100,NA,100,NA,NA,200,-94.977466,33.5771065
Brookshires Pharmacy 032,880 E State Highway 243,VAN ZANDT,Canton,NA,100,NA,NA,NA,NA,100,-94.9793033,33.5768167
Brookshires Pharmacy 033,205 W Frank St,VAN ZANDT,Grand Saline,NA,100,NA,NA,NA,NA,100,-94.9796029,33.5763259
Brookshires Pharmacy 035,2235 S Washington St,KAUFMAN,Kaufman,NA,100,NA,100,NA,NA,200,-94.9800503,33.5753531
Brookshires Pharmacy 036,1310 N Brazos St,HILL,Whitney,NA,100,NA,100,NA,NA,200,-94.9811716,33.5738671
Brookshires Pharmacy 039,20100 Hwy. 155 S.,SMITH,Flint,NA,100,NA,NA,NA,NA,100,-94.9819163,33.5727585
Brookshires Pharmacy 064,1200 S 3rd St,HENDERSON,Mabank,NA,200,NA,100,NA,NA,300,-94.9834166,33.5716546
Brookshires Pharmacy 1,301 S Chestnut St,ANGELINA,Lufkin,NA,500,NA,NA,NA,NA,500,-94.9858118,33.5714491
Brookshires Pharmacy 10,300 W Us Highway 84,FREESTONE,Fairfield,NA,400,NA,NA,NA,NA,400,-94.9942172,33.5573724
Brookshires Pharmacy 100,9295 Hwy 6,BOSQUE,Meridian,NA,100,NA,100,NA,NA,200,-94.9944608,33.556523
Brookshires Pharmacy 1001,202 N Main St,HARDIN,Lumberton,NA,400,NA,NA,NA,NA,400,-95.0147287,33.5504057
Brookshires Pharmacy 1002,204 Broadway,CHAMBERS,Winnie,NA,200,NA,NA,NA,NA,200,-95.0170814,33.5492157
Brookshires Pharmacy 1004,210 N Main St,BRAZOS,Bryan,NA,500,NA,NA,NA,NA,500,-95.0170814,33.5480506
Brookshires Pharmacy 1005,810 S State St,MADISON,Madisonville,NA,100,NA,NA,NA,NA,100,-95.0170814,33.5475896
Brookshires Pharmacy 1007,31303 Fm 2920 Rd Ste H,HARRIS,Waller,NA,300,NA,NA,NA,NA,300,-95.0393787,33.5255094
Brookshires Pharmacy 1020,2075 Worth St,SABINE,Hemphill,NA,500,NA,NA,NA,NA,500,-95.0538,33.5243191
Brookshires Pharmacy 106,125 Hall Rd,DALLAS,Seagoville,NA,100,NA,NA,NA,NA,100,-95.0625526,33.5205166
Brookshires Pharmacy 108,Po Box 1709,ELLIS,Red Oak,NA,100,NA,100,NA,NA,200,-95.0629729,33.5201759
Brookshires Pharmacy 109,609 Linda Dr,MORRIS,Daingerfield,NA,100,NA,100,NA,NA,200,-95.0733704,33.5201123
Brookshires Pharmacy 109 - Pilot Point,750 S Highway 377,DENTON,Pilot Point,NA,200,NA,100,NA,NA,300,-95.0782919,33.519259
Brookshires Pharmacy 11 - Brenham,303 N Austin Pkwy,WASHINGTON,Brenham,NA,300,NA,100,NA,NA,400,-95.082441,33.5184611
Brookshires Pharmacy 112,1111 N Hwy 287,HOUSTON,Grapeland,NA,200,NA,NA,NA,NA,200,-95.0839275,33.5065532
Brookshires Pharmacy 117,501 E Broadway St,NOLAN,Sweetwater,NA,100,NA,200,NA,NA,300,-95.085492,33.5042125
Brookshires Pharmacy 119,601 Palo Pinto St,PARKER,Weatherford,NA,100,NA,NA,NA,NA,100,-95.0862056,33.5042125
Brookshires Pharmacy 125,511 N Stewart St,TARRANT,Azle,NA,100,100,NA,NA,NA,200,-95.092937,33.5030031
Brookshires Pharmacy 126,Po Box 587,PARKER,Springtown,NA,100,NA,100,NA,NA,200,-95.0942512,33.4900034
Brookshires Pharmacy 127,11205 N State Hwy 289,GRAYSON,Pottsboro,NA,100,200,NA,NA,NA,300,-95.0954596,33.4773939
Brookshires Pharmacy 13 - Hearne,400 W 2nd St,ROBERTSON,Hearne,NA,200,NA,NA,NA,NA,200,-95.0967735,33.4689395
Brookshires Pharmacy 130,590 W Main St,HARRISON,Hallsville,NA,300,NA,100,NA,NA,400,-95.098105,33.4648478
Brookshires Pharmacy 131,1325 W White St,COLLIN,Anna,NA,100,100,100,NA,NA,300,-95.1136501,33.464425
Brookshires Pharmacy 133,1001 Joshua Station St,JOHNSON,Joshua,NA,100,NA,100,NA,NA,200,-95.1191654,33.4638683
Brookshires Pharmacy 14 - Newton,701 W Court St,NEWTON,Newton,NA,100,NA,200,NA,NA,300,-95.1197269,33.4638683
Brookshires Pharmacy 16,603 E Houston St,LIBERTY,Cleveland,NA,500,NA,NA,NA,NA,500,-95.1203255,33.4627953
Brookshires Pharmacy 17,210 E Cherokee St,CHEROKEE,Jacksonville,NA,300,NA,NA,NA,NA,300,-95.1215874,33.4596231
Brookshires Pharmacy 18,520 S Magnolia St,TYLER,Woodville,NA,400,NA,NA,NA,NA,400,-95.1242334,33.4294187
Brookshires Pharmacy 19 - Rockdale,725 W Cameron Ave,MILAM,Rockdale,NA,300,NA,NA,NA,NA,300,-95.1248033,33.42893
Brookshires Pharmacy 2,1216 South St,NACOGDOCHE,Nacogdoches,NA,200,NA,NA,NA,NA,200,-95.1256937,33.4289096
Brookshires Pharmacy 21,1253 W Church St,POLK,Livingston,NA,500,NA,NA,NA,NA,500,-95.1270831,33.4224643
Brookshires Pharmacy 22,425 N Main St,CHEROKEE,Rusk,NA,200,NA,NA,NA,NA,200,-95.1271344,33.4144294
Brookshires Pharmacy 23 - Trinity,515 S Robb St,TRINITY,Trinity,NA,300,NA,NA,NA,NA,300,-95.1274755,33.4136608
Brookshires Pharmacy 24,100 S Home St,POLK,Corrigan,NA,100,NA,NA,NA,NA,100,-95.1277345,33.3898388
Brookshires Pharmacy 25,1807 West Frank,ANGELINA,Lufkin,NA,400,NA,NA,NA,NA,400,-95.127938,33.3700561
Brookshires Pharmacy 26,1117 N Main St,LEON,Jewett,NA,100,NA,NA,NA,NA,100,-95.1307472,33.3691925
Brookshires Pharmacy 270,1380 N Main St,ORANGE,Vidor,NA,200,NA,100,NA,100,400,-95.1320152,33.3428398
Brookshires Pharmacy 28 - San Augustin,705 W Columbia St,SAN AUGUSTIN,San Augustine,NA,300,NA,NA,NA,NA,300,-95.1320907,33.3306751
Brookshires Pharmacy 29,333 Highway 96 S,HARDIN,Silsbee,NA,400,NA,NA,NA,NA,400,-95.1358773,33.3129749
Brookshires Pharmacy 3,521 S MAIN,SMITH,Lindale,NA,100,NA,NA,NA,NA,100,-95.1443471,33.2983609
Brookshires Pharmacy 30 - Madisonville,403 E Main St,MADISON,Madisonville,NA,100,NA,NA,NA,NA,100,-95.1458951,33.2501634
Brookshires Pharmacy 32 - Center,105 Hurst St,SHELBY,Center,NA,300,NA,NA,NA,NA,300,-95.1503007,33.2364556
Brookshires Pharmacy 33 - Huntsville,2601 11th St,WALKER,Huntsville,NA,400,NA,NA,NA,NA,400,-95.1509019,33.2345872
Brookshires Pharmacy 35 - Diboll,223 1/2 Temple Dr,ANGELINA,Diboll,NA,400,NA,NA,NA,NA,400,-95.157752,33.2320388
Brookshires Pharmacy 36 - Kountze,90 W Monroe St,HARDIN,Kountze,NA,400,NA,NA,NA,NA,400,-95.159987,33.2308754
Brookshires Pharmacy 37,513 E Austin St,LEE,Giddings,NA,300,NA,NA,NA,NA,300,-95.1621586,33.2303516
Brookshires Pharmacy 39 - Bellville,720 S Front St,AUSTIN,Bellville,NA,500,NA,NA,NA,NA,500,-95.1622681,33.2286405
Brookshires Pharmacy 4,959 East Us Hwy 69,RAINS,Emory,NA,100,NA,NA,NA,NA,100,-95.1625533,33.2269608
Brookshires Pharmacy 40,3523 1/2 Front St,WALLER,Brookshire,NA,300,NA,NA,NA,NA,300,-95.1627773,33.2243835
Brookshires Pharmacy 42,1420 N University Dr,NACOGDOCHE,Nacogdoches,NA,500,NA,NA,NA,NA,500,-95.1643009,33.2239222
Brookshires Pharmacy 43,403 E Highway 90,LIBERTY,Dayton,NA,200,NA,NA,NA,NA,200,-95.1659752,33.2215821
Brookshires Pharmacy 44,455 Hwy 36 N,BURLESON,Caldwell,NA,100,NA,NA,NA,NA,100,-95.166183,33.2211103
Brookshires Pharmacy 45,3354 Gilmer Rd,GREGG,Longview,NA,100,NA,NA,NA,NA,100,-95.1720049,33.2211103
Brookshires Pharmacy 45 - Jasper,1125 S Wheeler St,JASPER,Jasper,NA,500,NA,NA,NA,NA,500,-95.172779,33.2211103
Brookshires Pharmacy 48,18535 Fm 1488,MONTGOMERY,Magnolia,NA,500,NA,NA,NA,NA,500,-95.1821126,33.2200494
Brookshires Pharmacy 50,200 W Us Highway 80,GREGG,White Oak,NA,100,NA,NA,NA,NA,100,-95.1837808,33.2190434
Brookshires Pharmacy 51,100 Rice Rd,SMITH,Tyler,NA,100,NA,NA,NA,NA,100,-95.1837808,33.2179656
Brookshires Pharmacy 51 - Liberty,2325 N Main St,LIBERTY,Liberty,NA,500,NA,NA,NA,NA,500,-95.1871226,33.2178766
Brookshires Pharmacy 52,1603 Culver St,HUNT,Commerce,NA,100,NA,NA,NA,NA,100,-95.1900977,33.2171081
Brookshires Pharmacy 52 - Huntington,104 N Main St,ANGELINA,Huntington,NA,400,NA,NA,NA,NA,400,-95.1909288,33.2171081
Brookshires Pharmacy 53,120 S Waco St,HILL,Hillsboro,NA,100,NA,100,NA,NA,200,-95.1925431,33.2164953
Brookshires Pharmacy 54,2228 Island Byu,FANNIN,Bonham,NA,100,100,NA,NA,NA,200,-95.1969858,33.2158735
Brookshires Pharmacy 54 - Buffalo,1220 W Commerce,LEON,Buffalo,NA,100,NA,NA,NA,NA,100,-95.2004437,33.215552
Brookshires Pharmacy 56,420 N Hill St,RUSK,Tatum,NA,200,NA,100,NA,NA,300,-95.201429,33.2063877
Brookshires Pharmacy 58,306 State Hwy 37 South,FRANKLIN,Mount Vernon,NA,100,NA,100,NA,NA,200,-95.2017956,33.205384
Brookshires Pharmacy 59 - Sour Lake,295 Highway 105 E,HARDIN,Sour Lake,NA,400,NA,NA,NA,NA,400,-95.2057094,33.2038117
Brookshires Pharmacy 6,309 N La Salle St,GRIMES,Navasota,NA,300,NA,NA,NA,NA,300,-95.2060551,33.2038117
Brookshires Pharmacy 60,Po Box 934,WOOD,Quitman,NA,100,NA,100,NA,NA,200,-95.2066461,33.2005516
Brookshires Pharmacy 61,Po Box 498,SMITH,Whitehouse,NA,100,NA,NA,NA,NA,100,-95.2068508,33.2005201
Brookshires Pharmacy 61 - Hempstead,300 Bus Hwy 290 E,WALLER,Hempstead,NA,500,NA,NA,NA,NA,500,-95.2069892,33.1993816
Brookshires Pharmacy 62,520 W 1st St,TRINITY,Groveton,NA,100,NA,NA,NA,NA,100,-95.207877,33.1952171
Brookshires Pharmacy 63 - Lorena,406 N Frontage Rd,MCLENNAN,Lorena,NA,500,NA,NA,NA,NA,500,-95.2134454,33.1898758
Brookshires Pharmacy 65,16800 Sh 36 South,BURLESON,Somerville,NA,100,NA,NA,NA,NA,100,-95.2134455,33.1898758
Brookshires Pharmacy 67,14100 Ranch Road 12 Unit 2a,HAYS,Wimberley,NA,500,NA,NA,NA,NA,500,-95.2148823,33.1885263
Brookshires Pharmacy 68,210 S Seven Points Dr,HENDERSON,Kemp,NA,100,NA,NA,NA,NA,100,-95.2152497,33.1878732
Brookshires Pharmacy 68 - Mcgregor,1250 W Mcgregor Dr,MCLENNAN,McGregor,NA,300,NA,NA,NA,NA,300,-95.2303788,33.1829752
Brookshires Pharmacy 69,1400 E Main St,ELLIS,Midlothian,NA,100,NA,100,NA,NA,200,-95.2308025,33.1826237
Brookshires Pharmacy 69 - Salado,215 Mill Creek Dr,BELL,Salado,NA,500,NA,NA,NA,NA,500,-95.2331523,33.182181
Brookshires Pharmacy 7,210 N Marcus,CHEROKEE,Alto,NA,100,NA,NA,NA,NA,100,-95.2338864,33.1778917
Brookshires Pharmacy 70,213 Doctor M Roper Pkwy N,SMITH,Bullard,NA,100,NA,NA,NA,NA,100,-95.2345798,33.1777804
Brookshires Pharmacy 71,14981 Old Trinity Rd,POLK,Onalaska,NA,200,NA,NA,NA,NA,200,-95.2365458,33.1777207
Brookshires Pharmacy 72,210 N Mccoy Blvd,BOWIE,New Boston,NA,100,NA,NA,NA,NA,100,-95.2384722,33.1770426
Brookshires Pharmacy 72 - Coldspring,14761 Hwy 150 West,SAN JACINTO,Coldspring,NA,100,NA,NA,NA,200,300,-95.2389443,33.1766132
Brookshires Pharmacy 73,675 E Sunset Blvd,COLLIN,Celina,NA,100,100,100,NA,NA,300,-95.2421057,33.1766132
Brookshires Pharmacy 73 - Montgomery,21005 Eva St,MONTGOMERY,Montgomery,NA,500,NA,NA,NA,NA,500,-95.2442066,33.176303
Brookshires Pharmacy 74,6410 Wesley St,HUNT,Greenville,NA,100,NA,NA,NA,NA,100,-95.2443003,33.1758774
Brookshires Pharmacy 74 - Hallettsville,1514 N Texana St,LAVACA,Hallettsville,NA,300,NA,NA,NA,NA,300,-95.2452852,33.1756887
Brookshires Pharmacy 75,103 Main St,LEON,Normangee,NA,NA,NA,100,NA,NA,100,-95.2477966,33.1752573
Brookshires Pharmacy 76 - Ganado,305 W York,JACKSON,Ganado,NA,200,NA,NA,NA,300,500,-95.2485173,33.1745937
Brookshires Pharmacy 77,800 N Main St Ste A,NAVARRO,Corsicana,NA,100,NA,NA,NA,NA,100,-95.2499181,33.1742689
Brookshires Pharmacy 79,1705 W Audie Murphy Pkwy,COLLIN,Farmersville,NA,100,100,100,NA,NA,300,-95.2499997,33.1704644
Brookshires Pharmacy 79 - Canyon Lake,18275 Fm 306,COMAL,Canyon Lake,NA,200,NA,NA,NA,NA,200,-95.2543434,33.1672287
Brookshires Pharmacy 8 - Carthage,412 W Panola St,PANOLA,Carthage,NA,500,NA,NA,NA,NA,500,-95.2548122,33.167178
Brookshires Pharmacy 84,Po Box 1409,HENDERSON,Chandler,NA,100,NA,NA,NA,NA,100,-95.2548122,33.1660141
Brookshires Pharmacy 84 - Hamilton,1004 E Main St,HAMILTON,Hamilton,NA,100,NA,NA,NA,NA,100,-95.2551202,33.1633545
Brookshires Pharmacy 85,401 N 4th St,HOUSTON,Crockett,NA,500,NA,NA,NA,NA,500,-95.2586217,33.1596558
Brookshires Pharmacy 87,8929 State Highway 34 S,HUNT,Quinlan,NA,100,NA,NA,NA,NA,100,-95.264972,33.1596498
Brookshires Pharmacy 89,Po Box 1230,KAUFMAN,Forney,NA,100,NA,100,NA,NA,200,-95.2651152,33.1593524
Brookshires Pharmacy 90,100 Peplow Dr,MCLENNAN,Waco,NA,100,NA,NA,NA,NA,100,-95.2653829,33.157969
Brookshires Pharmacy 92,900 Fm 3220,BOSQUE,Clifton,NA,NA,NA,100,NA,NA,100,-95.2670153,33.1579244
Brookshires Pharmacy 93,400 W Central Ave,COMANCHE,Comanche,NA,100,NA,NA,NA,NA,100,-95.26926,33.1576788
Brookshires Pharmacy 94,1301 S Morgan St,HOOD,Granbury,NA,100,NA,100,NA,NA,200,-95.270566,33.1562977
Brookshires Pharmacy 97,5118 E. I-20 Service Road-South,PARKER,Aledo,NA,100,NA,NA,NA,NA,100,-95.2739128,33.1539812
Brookshires Pharmacy 99,1010 Avenue E,EASTLAND,Cisco,NA,100,NA,NA,NA,NA,100,-95.2749757,33.1538965
Brownfield Regional Med Ctr Rural Hlth,703 E Felt St,TERRY,Brownfield,NA,200,NA,100,NA,NA,300,-95.2760788,33.1526175
Brownfield Regional Medical Center,705 E Felt St,TERRY,Brownfield,NA,300,NA,NA,NA,975,1275,-95.2761781,33.1521543
Brownsville Community Health Center,191 E. Price Rd,CAMERON,Brownsville,NA,100,NA,100,NA,NA,200,-95.2761985,33.1512128
Brushy Creek Family Hospital,230 Deer Ridge Dr.,WILLIAMSON,Round Rock,NA,NA,200,NA,NA,NA,200,-95.2768108,33.1509332
Bryan Family Medicine Clinic,2709 Osler Blvd,BRAZOS,Bryan,NA,NA,NA,100,NA,NA,100,-95.2770996,33.1492182
Bryan Opco LLC DBA Legacy Nrsig and Rbltn,2817 Kent St,BRAZOS,Bryan,NA,100,NA,NA,NA,NA,100,-95.2813337,33.1477613
Bsa Health System,1600 Wallace Blvd,POTTER,Amarillo,NA,2500,1200,NA,NA,NA,3700,-95.2843277,33.146874
BSA Physicians Group,1600 Wallace Blvd,POTTER,Amarillo,NA,NA,100,NA,NA,NA,100,-95.2880012,33.1457308
BSW Medical Center Austin,5245 W Highway 290,TRAVIS,Austin,NA,900,NA,NA,NA,NA,900,-95.2898963,33.1323695
BSW Medical Center Lakeway,100 Medical Pkwy,TRAVIS,Austin,NA,1100,NA,NA,NA,NA,1100,-95.2908131,33.1321208
BSW Medical Center Marble Falls,810 Tx-71w,BURNET,Marble Falls,NA,500,100,NA,100,NA,700,-95.291058,33.1318877
BSWH Buda Medical Center,5330 Overpass Rd,HAYS,Buda,NA,100,NA,NA,NA,NA,100,-95.2918746,33.1307283
Burleson Public Health Authority,828 sw alsbury,JOHNSON,Burleson,NA,NA,NA,NA,100,NA,100,-95.2947652,33.1286995
Burleson St Joseph Health Center,1101 Woodson Dr,BURLESON,Caldwell,NA,NA,100,NA,NA,NA,100,-95.2979859,33.1286995
Cacost- Community Health Center - Alice,700 Flournoy Rd,JIM WELLS,Alice,NA,NA,NA,NA,NA,100,100,-95.2988567,33.1274168
Cactus Health,700 N Main St,PECOS,Fort Stockton,NA,NA,NA,NA,100,NA,100,-95.2993388,33.1264583
Cadena Family Practice,2201 N Bedell Ave Ste A,VAL VERDE,Del Rio,NA,NA,NA,NA,300,NA,300,-95.3000409,33.1254599
Cameron County Public Health,1390 W Expressway 83,CAMERON,San Benito,NA,NA,NA,NA,6000,NA,6000,-95.3000409,33.122106
Canadian Family Physicians,1010 South 4th,HEMPHILL,Canadian,NA,100,NA,200,NA,NA,300,-95.301021,33.1218888
Candelaria Medical Center,8269 N Loop Dr,EL PASO,El Paso,NA,NA,NA,100,NA,NA,100,-95.3029811,33.121801
Capital Medical Clinic,1301 W 38th St,TRAVIS,Austin,NA,500,NA,NA,NA,NA,500,-95.3058397,33.1205662
Care Express Georgia,2701 S Georgia,POTTER,Amarillo,NA,NA,NA,300,NA,NA,300,-95.3073099,33.1191604
CareFlite,3110 S Great Southwest Pkwy,TARRANT,Grand Prairie,NA,700,NA,NA,NA,NA,700,-95.3133075,33.1190305
CAREPARTH HEALTHCARE SYSTEM LLP,720 WEST NATHAN LOWE SUITE 100,TARRANT,Arlington,NA,500,NA,NA,NA,NA,500,-95.313338,33.1169905
Carevide,4311 Wesley St,HUNT,Greenville,NA,NA,NA,NA,100,NA,100,-95.3135401,33.1159961
"Careville Pediatrics, Pa",1003 N Saint Marys St,BEE,Beeville,NA,NA,NA,100,NA,NA,100,-95.3153257,33.1146838
Caritas Family Medicine PA,11901 Toepperwein Rd,BEXAR,San Antonio,NA,100,NA,NA,NA,NA,100,-95.3176267,33.1141843
Carlos Rosas MD PA,704 Paredes Line Rd Ste A,CAMERON,Brownsville,NA,NA,NA,100,NA,NA,100,-95.3209855,33.1136232
Carousel Pediatrics Round Rock,1201 S Interstate 35 Ste 303,WILLIAMSON,Round Rock,NA,NA,NA,NA,NA,100,100,-95.3251596,33.1101244
Carousel Pediatrics Wm Cannon,6425 S Interstate 35 Ste 100,TRAVIS,Austin,NA,NA,NA,NA,NA,100,100,-95.3292666,33.1055893
Carrollton Springs,2225 Parker Rd,DENTON,Carrollton,NA,NA,NA,NA,400,NA,400,-95.3315818,33.1052
Castle Hills family practice,6409 Bandera Road,BEXAR,San Antonio,NA,NA,NA,NA,100,NA,100,-95.3389752,33.1049445
Ccdhhs Harlingen Nursing Office,711 N L St,CAMERON,Harlingen,NA,NA,NA,1000,NA,NA,1000,-95.3403996,33.1031899
Ccdhhs Mary P Lucio Health Clinic,1204 Jose Colunga Jr St,CAMERON,Brownsville,NA,NA,100,NA,NA,NA,100,-95.3406005,33.1031684
Ccdhhs San Benito Nursing Office,1390 W Expressway 83,CAMERON,San Benito,NA,NA,100,NA,NA,6000,6100,-95.341462,33.1012877
Ccmh Clinic,102 S Archer St,CLAY,Henrietta,NA,100,NA,NA,NA,NA,100,-95.3439961,33.0998491
Cedar Park Regional Medical Center,1401 Medical Parkway,WILLIAMSON,Cedar Park,NA,900,NA,NA,NA,NA,900,-95.3480823,33.0991682
Celina Drug,701 N Preston Rd Ste 210,COLLIN,Celina,NA,500,NA,100,NA,NA,600,-95.3489815,33.097467
"Centennial ASC, LLC",4401 Coit Road,COLLIN,Frisco,NA,NA,NA,100,NA,NA,100,-95.3490056,33.0963824
Center For Family Medicine,1906 Hwy 82 West,GRAYSON,Sherman,NA,500,NA,NA,NA,NA,500,-95.3565836,33.0933086
Centra Clinic,3751 South Dairy Ashford Road,HARRIS,Houston,NA,500,NA,NA,NA,NA,500,-95.3617097,33.0906899
"Central Texas Rehabilitation Hospital, LLC",700 W. 45th Street,TRAVIS,Austin,NA,600,NA,NA,NA,NA,600,-95.3662309,33.0897784
Centro De Salud Familiar La Fe,12101 Socorro Rd.,EL PASO,San Elizario,NA,NA,NA,NA,NA,100,100,-95.3688064,33.0842438
Centro De Salud Familiar La Fe Inc/Adult Satellite Clinic,823 E Yandell Dr,EL PASO,El Paso,NA,NA,NA,NA,NA,100,100,-95.3730585,33.0833154
Centro De Salud Familiar Lafe,700 S Ochoa St,EL PASO,El Paso,NA,NA,NA,NA,NA,100,100,-95.3743668,33.0827366
Centro De Salud Lisbon,200 Lisbon Street,EL PASO,El Paso,NA,NA,NA,100,NA,NA,100,-95.3744077,33.0822867
Centro Med La Paloma,7404 W Us Highway 90 Bldg 37,BEXAR,San Antonio,NA,NA,NA,NA,NA,100,100,-95.3774319,33.0808658
Centro San Vicente - El Paso,8061 Alameda Ave,EL PASO,El Paso,NA,1500,NA,100,NA,NA,1600,-95.3792326,33.0787119
Centro San Vicente - San Elizario,13017 Perico Street,EL PASO,San Elizario,NA,NA,100,NA,NA,NA,100,-95.3801322,33.0754362
Centromed Indian Creek Clinic,5439 Ray Ellison Blvd,BEXAR,San Antonio,NA,NA,NA,NA,NA,100,100,-95.3807895,33.0733868
Centromed Maria Flores Castro Clinic,7315 S. Loop 1604 W.,BEXAR,Somerset,NA,NA,NA,NA,NA,100,100,-95.3838943,33.0729507
Centromed Palo Alto Clinic,9011 Poteet Jourdanton Fwy,BEXAR,San Antonio,NA,NA,NA,NA,NA,100,100,-95.3838943,33.0729199
Cesar R Calianga MD,7812 Gateway East,EL PASO,El Paso,NA,100,NA,NA,NA,NA,100,-95.384017,33.0718659
CHAMBERS COUNTY HEALTH DEPT ANAHUAC,102 AIRPORT RD,CHAMBERS,Anahuac,NA,200,NA,300,NA,1200,1700,-95.3852171,33.0661757
Chapman Pharmacy,108 E 5th St,CHEROKEE,Rusk,NA,100,NA,NA,NA,NA,100,-95.3872989,33.0623612
Chi St Joseph Health College Station Hospital,1604 Rock Prairie Rd,BRAZOS,College Station,NA,300,300,NA,NA,1200,1800,-95.3877385,33.0500559
Chi St Joseph Primary Austins Colony,2410 Boonville Rd,BRAZOS,Bryan,NA,NA,NA,300,NA,NA,300,-95.3878106,33.0479176
CHI St Joseph Primary Care- College Station,1512 Holleman Dr,BRAZOS,College Station,NA,NA,NA,NA,100,NA,100,-95.3878203,33.0458798
Chi St Joseph Primary Care 29th,2210 E 29th St,BRAZOS,Bryan,NA,NA,NA,200,NA,NA,200,-95.3884747,33.0457297
Chi St Joseph Primary Care University Dr,3201 University Dr E Ste 425,BRAZOS,Bryan,NA,NA,NA,200,NA,NA,200,-95.3888018,33.0452646
Chi St Joseph Prmry Care W Villa Maria,1612 W Villa Maria Rd Ste 130,BRAZOS,Bryan,NA,NA,NA,100,NA,NA,100,-95.3892216,33.0445556
Chi St Lukes Health,6720 Bertner Ave,HARRIS,Houston,NA,NA,NA,1000,NA,1950,2950,-95.3898652,33.0445556
Chi St Lukes Health,NA,HARRIS,Houston,5850,NA,NA,NA,NA,NA,5850,-95.3901924,33.0443397
Chi St Lukes Health Memorial Livingston,1717 Highway 59 Loop N,POLK,Livingston,NA,300,100,NA,100,NA,500,-95.3902346,33.0439957
CHI ST LUKES HEALTH WOODLANDS HOSP,17200 ST LUKES WAY,MONTGOMERY,Conroe,NA,2000,NA,NA,200,NA,2200,-95.3905069,33.0430426
Chi St Lukes Hlth Memorial Lufkin,1201 W Frank Ave,ANGELINA,Lufkin,NA,600,400,NA,100,NA,1100,-95.3910921,33.0405549
CHI St. Joseph College Station Hospital,1604 Rock Prairie Rd,BRAZOS,College Station,NA,NA,NA,NA,1200,NA,1200,-95.391841,33.0398472
"CHI St. Joseph Health Rehabilitation Hospital, an",1600 Joseph Dr.,BRAZOS,Bryan,NA,NA,NA,NA,100,NA,100,-95.3920737,33.0382079
Chi St. Joseph Madison Hospital,100 W Cross St,MADISON,Madisonville,NA,NA,100,NA,NA,NA,100,-95.3920737,33.0381207
Chi St. Joseph Primary Care-Wd Fitch,2849 Barron Rd,BRAZOS,College Station,NA,200,NA,NA,NA,NA,200,-95.3940422,33.0358208
CHI St. Luke's Lakeside Hospital,17400 St. Luke's Way,MONTGOMERY,Conroe,NA,500,NA,NA,NA,NA,500,-95.3941256,33.0353088
CHI St.Lukes Health Brazosport,"100, Medical Drive",BRAZORIA,Lake Jackson,NA,500,500,NA,NA,NA,1000,-95.3947226,33.0329967
Child And Adolescent Wellness Center - El Paso - 721 S Ochoa721 S Ochoa St,NA,EL PASO,El Paso,NA,NA,NA,NA,NA,100,100,-95.396499,33.0276646
Childrens Medical Center Of Dallas,1935 Medical District Dr,DALLAS,Dallas,NA,2500,7000,1200,NA,NA,10700,-95.3965469,33.0269773
Childrens Medical Center Plano,7601 Preston Rd,COLLIN,Plano,NA,2500,200,NA,NA,NA,2700,-95.3965525,33.0258342
Childress Regional Medical Center,901 Highway 83 North,CHILDRESS,Childress,NA,100,200,NA,NA,NA,300,-95.3969819,33.0258076
Christus Children's Hospital Of San Antonio,333 N Santa Rosa St,BEXAR,San Antonio,NA,900,100,NA,NA,NA,1000,-95.3981272,33.0247381
CHRISTUS Good Shepherd Medical Center Longview,700 E Marshall Ave,GREGG,Longview,975,975,600,NA,NA,NA,2550,-95.3990765,33.0241226
Christus Good Shepherd Medical Center Marshall,811 S Washington Ave,HARRISON,Marshall,NA,400,NA,NA,NA,NA,400,-95.3997225,33.0233172
Christus Health Clinic- Irving,NA,DALLAS,Irving,1950,NA,NA,NA,NA,NA,1950,-95.4006224,33.0218012
Christus Health Clinic- Irving - 9521,919 Hidden Ridge,DALLAS,Irving,NA,NA,100,NA,NA,NA,100,-95.4006224,33.021236
Christus Health St Elizabeth Hospital,2830 Calder St,JEFFERSON,Beaumont,NA,NA,1275,975,NA,NA,2250,-95.4010395,33.0209877
Christus Health St Elizabeth Hospital,NA,JEFFERSON,Beaumont,975,NA,NA,NA,NA,NA,975,-95.4016738,33.0203573
Christus Mother Frances Hospital - Jacksonville,2026 S Jackson St,CHEROKEE,Jacksonville,NA,100,100,NA,NA,NA,200,-95.4016738,33.0193449
Christus Mother Frances Hospital - Sulphur Springs,115 Airport Rd,HOPKINS,Sulphur Springs,NA,NA,NA,200,100,NA,300,-95.4024223,33.0177428
Christus Mother Frances Hospital - Tyler,800 E Dawson,SMITH,Tyler,975,975,5500,100,NA,NA,7550,-95.4026268,33.0167052
Christus Mother Frances Hospital - Winnsboro,719 West Coke Road,WOOD,Winnsboro,NA,100,NA,NA,NA,NA,100,-95.4040177,33.0164039
Christus Santa Rosa Family Health Center - San Antonio 1,11130 Christus Hills,BEXAR,San Antonio,NA,200,NA,NA,NA,NA,200,-95.4040995,33.0158909
Christus Santa Rosa Hospital - Westover Hills,11212 Tx-151,DALLAS,San Antonio,NA,NA,3625,NA,NA,NA,3625,-95.4054248,33.0139347
Christus Santa Rosa Hospital - Westover Hills,NA,BEXAR,San Antonio,4875,NA,NA,NA,NA,NA,4875,-95.4063142,33.0133231
Christus Santa Rosa Hospital Alamo Heights,403 Treeline Park,BEXAR,San Antonio,NA,200,NA,NA,NA,NA,200,-95.4068813,33.0131303
Christus Santa Rosa Hospital New Braunfels,600 North Union Ave,COMAL,New Braunfels,NA,500,NA,NA,NA,100,600,-95.4073722,33.0097782
Christus Santa Rosa Medical Center,2827 Babcock Rd,BEXAR,San Antonio,3900,975,3625,975,NA,NA,9475,-95.4084359,33.0095619
CHRISTUS Spohn Family Health Center-Westside,4617 Greenwood Drive,NUECES,Corpus Christi,NA,NA,NA,NA,100,NA,100,-95.4084359,33.007925
Christus Spohn Health System Alice,2500 E Main St,JIM WELLS,Alice,NA,200,NA,NA,NA,975,1175,-95.408471,33.0068882
Christus Spohn Health System Beeville,1500 E Houston St,BEE,Beeville,NA,200,NA,NA,NA,1950,2150,-95.4088515,33.0067556
Christus Spohn Health System Kleberg,1311 General Cavazos Blvd,KLEBERG,Kingsville,NA,200,NA,NA,NA,975,1175,-95.4091723,33.0057507
Christus Spohn Health System Shoreline,600 Elizabeth St,NUECES,Corpus Christi,NA,NA,1675,NA,NA,NA,1675,-95.4092746,33.0039708
Christus Spohn Health System Shoreline,NA,NUECES,Corpus Christi,4875,NA,NA,NA,NA,NA,4875,-95.4099906,33.0021845
Christus Spohn Health System South,5950 Saratoga Blvd,NUECES,Corpus Christi,NA,800,NA,NA,NA,NA,800,-95.4103385,33.0012327
Christus Spohn Quick Care Clinic,2606 Hospital Blvd.,NUECES,Corpus Christi,NA,NA,NA,NA,100,NA,100,-95.410431,33.0006728
Christus St Michael Health System,2600 Saint Michael Dr,BOWIE,Texarkana,NA,NA,1575,NA,NA,NA,1575,-95.4107679,33.0001486
Christus St Michael Health System,NA,BOWIE,Texarkana,975,NA,NA,NA,NA,NA,975,-95.4111361,32.9998487
Christus St. Michael Hospital - Atlanta,1007 S William St,CASS,Atlanta,NA,100,NA,NA,NA,NA,100,-95.4150639,32.9987198
Christus Trinity Clinic,520 E. Douglas Blvd,SMITH,Tyler,NA,2100,NA,NA,NA,NA,2100,-95.4172525,32.9984698
Christus Trinity Clinic- Richmond Road Texarkana,3502 Richmond Rd,DALLAS,Texarkana,NA,500,NA,NA,NA,NA,500,-95.4191148,32.9978004
Christus Trinity Clinic - Kilgore,1718 S Henderson Blvd,GREGG,Kilgore,NA,100,NA,NA,NA,NA,100,-95.4192414,32.9976858
Christus Trinity Clinic - Sulphur Springs,"105 Medical Plaza, Building 1",HOPKINS,Sulphur Springs,NA,200,NA,NA,NA,700,900,-95.4196058,32.9883034
Christus Trinity Clinic Hill Country Landa,774 Landa St,COMAL,New Braunfels,NA,200,NA,NA,NA,NA,200,-95.4206288,32.9856089
CHRISTUS TRINITY CLINIC INTERNAL MEDICINE MAR,815 S. WASHINGTON AVE,HARRISON,Marshall,NA,NA,100,NA,NA,NA,100,-95.4230022,32.9842346
Christus Trinity Clinic Lindale,3203 S Main St,SMITH,Lindale,NA,NA,NA,300,NA,NA,300,-95.4253732,32.9839422
Christus Trinity Clinic Magnolia Medical Plaza,3201 South Loop 256,ANDERSON,Palestine,NA,1400,NA,500,NA,NA,1900,-95.4254575,32.979932
Christus Trinity Clinic Of Canton,18780 I20 Service Road,VAN ZANDT,Canton,NA,500,NA,NA,NA,NA,500,-95.4271763,32.978874
Christus Trinity Mother Frances,1505 Hwy 19 S,HENDERSON,Athens,NA,NA,NA,NA,100,NA,100,-95.4277631,32.9774097
Citizens Medical Center - Victoria 1,2701 Hospital Dr,VICTORIA,Victoria,NA,NA,200,NA,NA,NA,200,-95.4278825,32.9706941
Citizens Medical Center - Victoria 1,NA,VICTORIA,Victoria,975,NA,NA,NA,NA,NA,975,-95.430426,32.9706681
"City Drug Store of Jacksboro, Inc.",104 East Belknap,JACK,Jacksboro,NA,NA,NA,100,NA,NA,100,-95.4312004,32.9703773
City Hospital At White Rock,9440 Poppy Dr,DALLAS,Dallas,NA,500,NA,NA,NA,NA,500,-95.4322,32.9695532
City of El Paso Fire Department,301 George Perry,EL PASO,El Paso,NA,NA,NA,1000,NA,5000,6000,-95.4323748,32.9687509
City Of Humble Fire Department,110 W Main St,HARRIS,Humble,NA,NA,NA,NA,100,NA,100,-95.432529,32.9684101
City of Laredo Health Department,2600 Cedar Ave,WEBB,Laredo,NA,NA,NA,NA,1200,NA,1200,-95.432915,32.9659566
City Of Laredo Health Department,2600 Cedar Ave,WEBB,Laredo,NA,300,300,500,NA,1200,2300,-95.4342517,32.9641999
City of Lubbock Health Department,806 18th St,LUBBOCK,Lubbock,NA,NA,NA,NA,5000,NA,5000,-95.4353618,32.9608694
City Of Mckinney Fire Department,2200 Taylor Burk Dr,COLLIN,McKinney,NA,800,NA,NA,NA,2000,2800,-95.437362,32.9558169
City of Plano,1901 K Avenue,COLLIN,Plano,NA,NA,500,NA,NA,NA,500,-95.4375721,32.9532814
City of Schertz EMS,1400 Schertz Parkway,GUADALUPE,Schertz,NA,NA,NA,500,NA,975,1475,-95.4393995,32.9505341
Clarendon Family Medical Center,1 Medical Center Drive,DONLEY,Clarendon,NA,NA,NA,100,NA,NA,100,-95.4419929,32.9504624
Clarx Hub City Pharmacy,3716 22nd Street,LUBBOCK,Lubbock,NA,100,NA,NA,NA,NA,100,-95.4425602,32.9503962
Claude Family Medical Clinic,201 Parks St,ARMSTRONG,Claude,NA,100,NA,NA,NA,NA,100,-95.4425939,32.9495494
Clay County Memorial Hospital,310 W South St,CLAY,Henrietta,NA,NA,NA,100,NA,975,1075,-95.4426393,32.9475495
"Clear Choice ER, LLC",7105 N. Bartlett Ave.,WEBB,Laredo,NA,NA,NA,NA,200,NA,200,-95.4429561,32.9471919
ClearSky Rehabilitation Hospital of Flower Mound,3100 Peters Colony Road,DENTON,Flower Mound,NA,NA,100,NA,NA,NA,100,-95.443152,32.9457075
Cleburne Fire Department,114 W. Wardville Dr.,JOHNSON,Cleburne,NA,500,NA,NA,NA,NA,500,-95.4440078,32.9426002
Clifton Medical Clinic,201 Posey Ave,BOSQUE,Clifton,NA,500,NA,500,NA,NA,1000,-95.4442076,32.9407828
Clinic for Cardiovascular Care,400 Holderrieth Blvd,HARRIS,Tomball,NA,500,NA,NA,NA,NA,500,-95.4449403,32.9404213
Clinica De Ninos - Houston,6445 High Star Dr,HARRIS,Houston,NA,NA,NA,100,NA,NA,100,-95.4457591,32.9389611
Clinica Hispana Ii 9720 Jones,9720 Jones Rd,HARRIS,Houston,NA,300,NA,NA,NA,NA,300,-95.4460047,32.9388392
"Clinica Hispana II, P.A.",8410 Fondren Rd,HARRIS,Houston,NA,500,NA,NA,NA,NA,500,-95.4488704,32.9384086
Clinica Hispana Plaza Del Sol,14050 State Highway 249 # B,HARRIS,Houston,NA,200,NA,NA,NA,NA,200,-95.4491705,32.9374777
"CLINICA HISPANA, P.A.",2026 Wirt Rd,HARRIS,Houston,NA,500,NA,NA,NA,NA,500,-95.4500986,32.9374427
Clinica Mi Doctor,8112 Spring Valley Rd,DALLAS,Dallas,NA,500,NA,NA,NA,NA,500,-95.4527189,32.9374159
Clinica Mi Doctor #6,229 Ne 28th St,TARRANT,Fort Worth,NA,NA,NA,100,NA,NA,100,-95.4537015,32.9348664
Clinica Sagrado Corazon,3401 W Mile 5 Rd Ste 1,HIDALGO,Mission,NA,NA,NA,100,NA,NA,100,-95.4540863,32.9341295
Clinicas Mi Doctor- #19 Bissonnet,5835 Bissonnet St,HARRIS,Bellaire,NA,500,NA,NA,NA,NA,500,-95.4542613,32.9322513
Clinicas Mi Doctor- #21 Longpoint,10058a Long Point Rd,HARRIS,Houston,NA,100,NA,NA,NA,NA,100,-95.4542999,32.9322416
Clinicas Mi Doctor- #23 Broadway,8225 Broadway St,HARRIS,Houston,NA,300,NA,NA,NA,NA,300,-95.4565881,32.9306942
Clinicas Mi Doctor- #24 Airline,5402 Airline Dr,HARRIS,Houston,NA,500,NA,NA,NA,NA,500,-95.4565881,32.9232971
Clinicas Mi Doctor-#18 Aldine,5230 Aldine Mail Route Rd,HARRIS,Houston,NA,200,NA,NA,NA,NA,200,-95.4572227,32.9204234
Clinicas Mi Doctor - Arlington,941 E Park Row Dr,TARRANT,Arlington,NA,500,NA,NA,NA,400,900,-95.4574926,32.9185145
Clinicas Mi Doctor - Dallas 2,3247 Dawes Dr,DALLAS,Dallas,NA,NA,NA,100,NA,NA,100,-95.4575802,32.9181073
CLINICS OF NORTH TEXAS,501 Midwestern Pkwy E,WICHITA,Wichita Falls,NA,1000,NA,NA,NA,NA,1000,-95.4582873,32.9161198
Coastal Bend Wellness Foundation,2882 Holly Rd,NUECES,Corpus Christi,NA,NA,NA,NA,100,NA,100,-95.4583692,32.9154581
"Coastal ER II, LLC",4141 S Staples St.,NUECES,Corpus Christi,NA,NA,NA,NA,100,NA,100,-95.4584102,32.9152243
Coastal Health & Wellness,9850 Emmett F. Lowry Expressway,GALVESTON,Texas City,NA,NA,NA,NA,NA,100,100,-95.458766,32.9139731
Cochran Memorial Hospital,201 E Grant Ave Ste 100,COCHRAN,Morton,NA,NA,NA,NA,100,NA,100,-95.4589834,32.9130884
Code 4 Emergency Services,1901 E 51st Street,TRAVIS,Austin,NA,1000,NA,NA,NA,NA,1000,-95.4601496,32.9126714
Cogdell Clinic Briscoe County,701 Commerce St,BRISCOE,Silverton,NA,NA,NA,100,NA,NA,100,-95.4612901,32.9126714
Cogdell Family Clinic,1700 Cogdell Blvd,SCURRY,Snyder,NA,NA,400,NA,NA,975,1375,-95.4629964,32.9126714
Cogdell Rural Health Clinic,320 N Main St,FLOYD,Lockney,NA,NA,NA,100,NA,NA,100,-95.4642044,32.912573
COH Northside Health Center,8504 Schuller,HARRIS,Houston,NA,NA,NA,300,NA,NA,300,-95.4642186,32.9120385
Coleman Medical Associates,310 S Pecos St Fl 2,COLEMAN,Coleman,NA,200,NA,NA,NA,NA,200,-95.4642681,32.9115344
Collin County Healthcare Services,825 N Mcdonald St Ste 145,COLLIN,McKinney,NA,1000,NA,NA,NA,2000,3000,-95.4648391,32.9111352
Collingsworth Family Medicine,1011 15th St,COLLINGSWOR,Wellington,NA,100,NA,NA,NA,NA,100,-95.4653305,32.9107958
Collingsworth Family Medicine,1011 15th St,COLLINGSWORTH,Wellington,NA,NA,NA,NA,100,NA,100,-95.4656582,32.9105783
Collom And Carney Main Clinic,5002 Cowhorn Creek Rd,BOWIE,Texarkana,NA,NA,NA,NA,300,NA,300,-95.4674008,32.9104286
Columbus Community Hospital - Columbus 2,110 Shult Drive,COLORADO,Columbus,NA,100,NA,200,100,NA,400,-95.4677254,32.910392
Comal County Public Health Office (Re),1297 Church Hill Drive,COMAL,New Braunfels,NA,200,NA,NA,NA,500,700,-95.4686484,32.9087884
Comanche County Medical Center,10201 Highway 16,COMANCHE,Comanche,NA,NA,300,NA,NA,975,1275,-95.4687296,32.9085561
Combest Central Health Center,2424 50th St Ste 50,LUBBOCK,Lubbock,NA,300,NA,NA,NA,NA,300,-95.4695077,32.9082048
Communicare Health Centers West,1102 Barclay St,BEXAR,San Antonio,NA,NA,NA,NA,100,NA,100,-95.4697125,32.9068416
Community Action Health Center,301 S Hillside Dr Ste 5,BEE,Beeville,NA,NA,NA,NA,NA,975,975,-95.4698354,32.9059157
Community Action Health Center- Brooks,1302 S St Marys St Ste A,BROOKS,Falfurrias,NA,NA,NA,NA,NA,100,100,-95.470209,32.9029197
Community Action Health Center- Kleberg,1311 E General Cavazos Blvd Ste 303 Kingsville,KLEBERG,NA,NA,NA,NA,NA,NA,100,100,-95.4710264,32.9021027
Community Action Health Center - Duval,115 W Main St,DUVAL,Benavides,NA,NA,NA,NA,NA,100,100,-95.4713917,32.9020671
Community Clinic At Mcc,4601 North 19th Street,MCLENNAN,Waco,NA,NA,NA,NA,NA,100,100,-95.4717193,32.9020671
Community Clinic At Santa Fe,600 S 25th St,BELL,Temple,NA,NA,NA,NA,NA,100,100,-95.4747521,32.9020425
"Community Health And Life Center, Pllc",17510 W Grand Pkwy S Ste 380,FORT BEND,Sugar Land,NA,100,NA,NA,NA,NA,100,-95.4767162,32.9017304
Community Pharmacy,3001 Fm 2181,DENTON,Denton,NA,NA,NA,100,NA,NA,100,-95.477945,32.9013976
Communitycare- Ob/Gyn Bastrop,301 Highway 71 W Ste 111,BASTROP,Bastrop,NA,NA,100,NA,NA,NA,100,-95.4780678,32.8999571
Communitycare- South Austin,2529 S 1st St,TRAVIS,Austin,NA,100,NA,NA,NA,NA,100,-95.479957,32.8986
Communitycare East Austin,211 Comal St,TRAVIS,Austin,NA,NA,NA,200,NA,NA,200,-95.4811809,32.8971839
Communitycare North Central,1210 W Braker Ln,TRAVIS,Austin,NA,1900,NA,100,NA,NA,2000,-95.482205,32.8964772
Communitycare Rundberg,825 E Rundberg Ln Ste B1,TRAVIS,Austin,NA,NA,NA,NA,NA,100,100,-95.4830652,32.8962706
Compassion Care Clinic,1050 N Westmoreland Rd Ste 432,DALLAS,Dallas,NA,NA,NA,100,NA,NA,100,-95.4835158,32.8960989
Comprehensive Orthopedics and Rehabilitation PA,1120 W. Campbell Rd,DALLAS,Richardson,NA,500,NA,NA,NA,NA,500,-95.4839664,32.8960989
Connally Memorial Family Practice - Floresville 1,6511 Us Highway 181 N Ste A,WILSON,Floresville,NA,300,NA,100,NA,NA,400,-95.484658,32.8959787
Connally Memorial Family Practice - Floresville 2,497 10th St Ste 101,WILSON,Floresville,NA,200,NA,100,NA,NA,300,-95.4851276,32.8946472
Connally Memorial Family Practice - Lavernia,13857 Us Hwy 87 West,WILSON,La Vernia,NA,300,NA,NA,NA,NA,300,-95.4866637,32.8940437
Connally Memorial Medical Center,499 10th St,WILSON,Floresville,NA,NA,400,NA,NA,NA,400,-95.486668,32.893699
Conroe Regional Medical Center,504 Medical Center Blvd,MONTGOMERY,Conroe,NA,900,100,NA,NA,NA,1000,-95.4905835,32.8916803
Conroe Willis Family Medicine,4015 Interstate 45 N Ste 220,MONTGOMERY,Conroe,NA,NA,NA,300,NA,NA,300,-95.4908386,32.8901285
Cook Children's Medical Center,801 7th Ave,TARRANT,Fort Worth,NA,NA,3125,NA,NA,NA,3125,-95.4912176,32.8898955
Cook Children's Medical Center,NA,TARRANT,Fort Worth,4875,NA,NA,NA,NA,NA,4875,-95.4913824,32.8893081
Cook Childrens Occupational Health Services,NA,TARRANT,Fort Worth,1950,NA,NA,NA,NA,NA,1950,-95.493536,32.8890914
Coon Memorial Hospital,1411 Denver Ave,HARTLEY,Dalhart,NA,NA,NA,300,NA,975,1275,-95.4938771,32.8884576
Cornerstone Clinic - Fredericksburg,514 W Windcrest St,GILLESPIE,Fredericksburg,NA,100,NA,NA,NA,NA,100,-95.4940543,32.8869275
Cornerstone Regional Hospital,2302 Cornerstone Blvd,HIDALGO,Edinburg,NA,200,100,NA,NA,NA,300,-95.4956015,32.8868989
Corpus Christi-Nueces County Public Health District,1702 Horne Road,NUECES,Corpus Christi,NA,NA,NA,NA,4000,NA,4000,-95.4964415,32.8857035
Corpus Christi Fire Department,2406 Leopard St,NUECES,Corpus Christi,NA,600,NA,100,NA,NA,700,-95.4965439,32.8820257
Corpus Christi Medical Associates,6200 Saratoga Blvd Unit 5,NUECES,Corpus Christi,NA,500,NA,NA,NA,NA,500,-95.5003955,32.8819973
Corpus Christi Medical Center,3315 S Alameda St,NUECES,Corpus Christi,NA,NA,NA,400,NA,NA,400,-95.5010102,32.8800046
Corpus Christi Medical Center,NA,NUECES,Corpus Christi,975,NA,NA,NA,NA,NA,975,-95.5018707,32.8797759
Corpus Christi Nueces Co Pub Hlth Dis,1702 Horne Road,NUECES,Corpus Christi,NA,100,500,NA,NA,5000,5600,-95.5023009,32.8781025
Corpus Christi Outpatient Surgery,3636 S Alameda St Ste A,NUECES,Corpus Christi,NA,NA,NA,100,NA,NA,100,-95.5042781,32.8779778
Corpus Christi Rehabilitation Hospital,5726 Esplanade Drive,NUECES,Corpus Christi,NA,NA,200,NA,NA,NA,200,-95.5087211,32.8752157
Coryell Health Medical Clinic,1507 W Main St,CORYELL,Gatesville,NA,300,200,NA,NA,975,1475,-95.5087962,32.8750626
County of Yoakum,412 Mustang Ave.,YOAKUM,Denver City,NA,NA,300,NA,NA,NA,300,-95.5098823,32.8722212
Covenant Children Hospital,4015 22nd Pl,LUBBOCK,Lubbock,NA,700,100,NA,NA,NA,800,-95.5099222,32.8699472
Covenant Health Pharmacy,3615 19th St MS 108,LUBBOCK,Lubbock,NA,400,NA,NA,NA,NA,400,-95.5112902,32.8653178
Covenant Healthplus,7601 Quaker Ave-Suite 100,LUBBOCK,Lubbock,NA,500,NA,NA,NA,NA,500,-95.5122601,32.8641902
Covenant Hospital Levelland,1900 College Avenue,HOCKLEY,Levelland,NA,200,NA,NA,NA,NA,200,-95.5129356,32.8640436
Covenant Hospital Plainview,2601 Dimmitt Rd,HALE,Plainview,NA,1000,NA,NA,NA,NA,1000,-95.5130587,32.8630014
Covenant Medical Center,3615 19th St,LUBBOCK,Lubbock,2925,975,700,NA,NA,NA,4600,-95.5152717,32.8620686
COVENANT MEDICAL GROUP,9812 SLIDE ROAD,LUBBOCK,Lubbock,NA,3000,NA,NA,NA,NA,3000,-95.5169623,32.8609512
Covenant Medical Group-Northwest Clinic,611 N Frankford Ave,LUBBOCK,Lubbock,NA,400,NA,NA,NA,NA,400,-95.5197244,32.8609512
Crane County Rural Health Clinic,1310 S Alford St,CRANE,Crane,NA,100,NA,NA,NA,975,1075,-95.5222934,32.8598445
Crescent Medical Center Lancaster,2600 W Pleasant Run Rd,DALLAS,Lancaster,NA,NA,NA,200,NA,NA,200,-95.5240602,32.8565983
Crosbyton Clinic Hosptital,710 W Main St,CROSBY,Crosbyton,NA,100,NA,NA,NA,975,1075,-95.5243186,32.8560435
Cuero-Dewitt County Health Department,115 N Gonzales St Ste B,DEWITT,Cuero,NA,NA,100,NA,NA,NA,100,-95.5269541,32.8550843
Cuero Regional Hospital,2550 N. Esplanade,DE WITT,Cuero,NA,200,NA,NA,NA,NA,200,-95.5286349,32.8535927
Cumberland Surgical Hospital,5330 North Loop 1604 West,BEXAR,San Antonio,NA,NA,NA,NA,200,NA,200,-95.5316138,32.8532188
Dallas County Health And Human Services,2377 N Stemmons Fwy,DALLAS,Dallas,NA,NA,NA,NA,6000,NA,6000,-95.5329131,32.8525721
Dallas Medical Center,7 Medical Parkway,DALLAS,Dallas,NA,200,200,NA,NA,NA,400,-95.5332293,32.852128
Dallas Regional Medical Center,1011 N Galloway Ave,DALLAS,Mesquite,NA,500,300,NA,NA,NA,800,-95.5337186,32.8517237
Davam Urgent Care,6022 Fm 1488 Rd,MONTGOMERY,Magnolia,NA,NA,NA,100,NA,NA,100,-95.536027,32.8505083
Davila Pharmacy,1423 Guadalupe,BEXAR,San Antonio,NA,200,NA,NA,200,NA,400,-95.5365142,32.8496638
Dawson County Hospital District,2200 North Bryan Avenue,DAWSON,Lamesa,NA,NA,100,100,100,NA,300,-95.5376927,32.8496435
Deaf Smith County Hospital District Employee Health,540 W 15th St,DEAF SMITH,Hereford,NA,NA,300,NA,NA,NA,300,-95.5378337,32.8461134
"Deer Park Family Clinic, P.A.",2910 Center St,HARRIS,Deer Park,NA,100,NA,100,NA,NA,200,-95.5387278,32.8444624
Del Sol Campus Of Lpds,10301 Gateway Blvd W,EL PASO,El Paso,NA,NA,300,1000,NA,NA,1300,-95.5391551,32.8386961
Del Sol Campus Of Lpds,NA,EL PASO,El Paso,975,NA,NA,NA,NA,NA,975,-95.5392128,32.8385437
Deliverit Pharmacy Clear Lake,600 N Kobayashi,HARRIS,Webster,NA,100,NA,NA,NA,NA,100,-95.5396638,32.8384712
"DeliverIt Pharmacy Inc.,",13303 West Airport Blvd,FORT BEND,Sugar Land,NA,100,NA,NA,NA,NA,100,-95.5420173,32.8384132
Dell Childrens Medical Center Of Central Texas,4900 Mueller Blvd,TRAVIS,Austin,NA,NA,1200,NA,NA,NA,1200,-95.5424521,32.8376449
Dell Childrens Medical Center Of Central Texas,NA,TRAVIS,Austin,1950,NA,NA,NA,NA,NA,1950,-95.543986,32.8376057
Dell Seton Medical Center At University Of Texas,1500 Red River St,TRAVIS,Austin,NA,NA,700,NA,NA,NA,700,-95.5439886,32.8355368
Dell Seton Medical Center At University Of Texas,NA,TRAVIS,Austin,1950,NA,NA,NA,NA,NA,1950,-95.5445844,32.8350497
Denton County Public Health,190 N. Valley Pkwy.,DENTON,Lewisville,NA,NA,NA,NA,3500,NA,3500,-95.5448898,32.8350489
Denton County Public Health - Denton,535 S. Loop 288,DENTON,Denton,NA,1000,NA,NA,NA,NA,1000,-95.5456096,32.8344239
Denton County Public Health Lewisville,190 N. Valley Pkwy.,DENTON,Lewisville,NA,NA,100,NA,NA,NA,100,-95.5461427,32.8340827
Denton State Supported Living Center,3980 State School Rd,DENTON,Denton,NA,NA,400,NA,NA,NA,400,-95.5467978,32.8335129
Dept of Public Health-Remcon,7380 Remcon Circle,EL PASO,El Paso,NA,300,NA,NA,NA,NA,300,-95.5467989,32.8322756
Dept Public Health-Alameda,9341 Alameda,EL PASO,El Paso,NA,300,NA,NA,NA,NA,300,-95.546905,32.8294169
Dept Public Health-Railroad,9566 Railroad,EL PASO,El Paso,NA,300,NA,NA,NA,NA,300,-95.546905,32.8292376
Dept Public Health-Stanton,220 S. Stanton,EL PASO,El Paso,NA,300,NA,NA,NA,NA,300,-95.5477831,32.8292376
Derm Surgery Associates,7515 Main St Ste 240,HARRIS,Houston,NA,500,NA,NA,NA,NA,500,-95.549554,32.8281994
DeTar Healtcare System,506 E. San Antonio,VICTORIA,Victoria,NA,1000,800,NA,NA,NA,1800,-95.5495875,32.8281172
Dewitt Family Practice,3020 Garrett Dr,OCHILTREE,Perryton,NA,NA,NA,NA,100,NA,100,-95.5498746,32.8251403
Diabetes and Thyroid Center of Fort Worth,7801 Oakmont Blvd,TARRANT,Fort Worth,NA,500,NA,NA,NA,NA,500,-95.5507484,32.8233915
Diagnostic Clinic of Longview,707 Hollybrook Drive,GREGG,Longview,NA,400,NA,NA,NA,NA,400,-95.5507524,32.8225137
DIANA LOZANO MD PA,5505 S Expressway 77,CAMERON,Harlingen,NA,NA,NA,100,NA,NA,100,-95.5521799,32.8220433
Dimmit Regional Hospital,704 Hospital Dr,DIMMIT,Carrizo Springs,NA,NA,200,NA,NA,975,1175,-95.5527377,32.819308
Dimmit Regional Hospital dba Luevano Health Care,504 Hospital Drive,DIMMIT,Carrizo Springs,NA,NA,NA,100,NA,NA,100,-95.5533149,32.8172101
"DIsmukesRx, LLC",511 East Davis Street,CALDWELL,Luling,NA,NA,NA,100,NA,NA,100,-95.5535997,32.816923
Divine Grace Pharmacy,1970 Us Highway 259 S,UPSHUR,Diana,NA,NA,100,300,NA,NA,400,-95.5539562,32.8138488
Doctors Hospital at Renaissance,5501 South McColl Road,HIDALGO,Edinburg,5850,3000,800,NA,6500,6825,22975,-95.5559751,32.8138026
Donald Freitag MD,2600 Lockwood St Ste A,LYNN,Tahoka,NA,NA,NA,100,NA,NA,100,-95.5579748,32.8133582
Dougherty's Pharmacy,5959 Royal Ln Ste 515,DALLAS,Dallas,NA,NA,NA,100,NA,NA,100,-95.5591602,32.8130797
Doughertys Pharmacy,5959 Royal Ln Ste 515,DALLAS,Dallas,NA,500,NA,NA,NA,NA,500,-95.559718,32.8128222
Dr Van Tran Family Practice,1919 North Loop West,HARRIS,Houston,NA,500,NA,NA,NA,NA,500,-95.559718,32.8121643
Dr. Karen Soriano,9812 Slide Rd,LUBBOCK,Lubbock,NA,NA,NA,100,NA,NA,100,-95.559759,32.8119394
Dripping Springs Pharmacy,100 Commons Rd Suite 1,HAYS,Dripping Springs,NA,NA,NA,100,NA,NA,100,-95.5603995,32.8111348
Driscoll Health System,3533 S. Alameda,NUECES,Corpus Christi,NA,1000,NA,1000,NA,975,2975,-95.5604933,32.810536
"Driven MD, PLLC",8501 Wade Blvd,DENTON,Frisco,NA,200,NA,NA,NA,NA,200,-95.5606307,32.8095238
DSHS Abilene,4601 S 1st St,TAYLOR,Abilene,NA,NA,NA,NA,500,NA,500,-95.5617051,32.8092269
DSHS Anson,2062 Us Hwy 277 North,JONES,Anson,NA,NA,NA,100,NA,100,200,-95.5621092,32.8085165
DSHS Archer City,511 S. Cedar,ARCHER,Archer City,NA,NA,NA,100,NA,100,200,-95.5626989,32.8066446
DSHS Ballinger,2017 Hutchins Avenue,RUNNELS,Ballinger,NA,NA,NA,100,NA,100,200,-95.5647429,32.8048498
DSHS Bastrop,104 Loop 150 W,BASTROP,Bastrop,NA,100,100,NA,NA,NA,200,-95.56583,32.8038395
DSHS Bellville Clinic,602 E Hacienda St,AUSTIN,Bellville,NA,NA,NA,NA,NA,100,100,-95.5671561,32.8032555
DSHS CENTRAL PHARMACY WAREHOUSE,1111 NORTH LOOP,TRAVIS,Austin,NA,1000,NA,1000,2900,NA,4900,-95.5674298,32.8032555
DSHS Cleburne,108 E Kilpatrick St,JOHNSON,Cleburne,NA,NA,NA,NA,NA,100,100,-95.5674988,32.8022656
DSHS Columbus Clinic,1220 Bowie St,COLORADO,Columbus,NA,NA,NA,100,NA,NA,100,-95.567676,32.8021236
Dshs Falfurrias,1200 E Highway 285,BROOKS,Falfurrias,NA,NA,NA,NA,NA,200,200,-95.5680452,32.7995074
DSHS Gainesville,1714 Justice Center Blvd,COOKE,Gainesville,NA,NA,NA,NA,100,NA,100,-95.5681272,32.7990466
Dshs Goliad,329 W. Franklin,GOLIAD,Goliad,NA,NA,NA,NA,100,NA,100,-95.5710392,32.7971772
DSHS Granbury,214 N Travis St,HOOD,Granbury,NA,NA,NA,NA,NA,100,100,-95.5723323,32.7966537
Dshs Hsr 2/3 Hq - Arlington (Re),1301 S Bowen Rd,TARRANT,Arlington,NA,NA,NA,NA,NA,100,100,-95.5763325,32.7966488
Dshs Hsr 6/5s-Bay City,1700 Merlin St,MATAGORDA,Bay City,NA,500,NA,NA,NA,NA,500,-95.5770082,32.7924372
Dshs Hsr 6/5s Hq - Houston (Re),5425 Polk St Ste 420,HARRIS,Houston,NA,NA,NA,NA,NA,600,600,-95.5798611,32.7914389
Dshs HSR 8 Hq - San Antonio (Re),7430 Louis Pasteur Dr,BEXAR,San Antonio,NA,NA,NA,NA,1000,700,1700,-95.5824052,32.7910016
DSHS Kaufman,2525 E. Hwy 175,KAUFMAN,Kaufman,NA,NA,NA,NA,NA,100,100,-95.5824462,32.790788
DSHS Kingsville,100 West King Avenue,KLEBERG,Kingsville,NA,NA,NA,NA,NA,100,100,-95.5826514,32.7903447
DSHS Lampasas,205 Water Street,LAMPASAS,Lampasas,NA,NA,NA,100,NA,NA,100,-95.5833489,32.7893782
Dshs Livingston,410 E Church St,POLK,Livingston,NA,NA,NA,NA,NA,200,200,-95.5835758,32.7837239
Dshs Marfa,205 E El Paso St,PRESIDIO,Marfa,NA,NA,NA,NA,100,200,300,-95.5837183,32.7833664
DSHS Marlin,217 Williams St,FALLS,Marlin,NA,NA,NA,NA,NA,300,300,-95.5846604,32.7799513
DSHS Midland,1101 N. Midland Dr.,MIDLAND,Midland,NA,NA,NA,NA,NA,200,200,-95.5861804,32.7790861
DSHS Mineral Wells,4113 Highway 180 E,PALO PINTO,Mineral Wells,NA,NA,NA,100,NA,100,200,-95.5875885,32.7789657
DSHS Mobile Nurse Alice,408 Flournoy Rd,JIM WELLS,Alice,NA,NA,NA,NA,NA,200,200,-95.5883553,32.7784533
Dshs Mobile Nurse Corpus,5155 Flynn Pkwy Ste 419,NUECES,Corpus Christi,NA,100,NA,NA,NA,200,300,-95.5947219,32.7739262
DSHS PHR 11,601 W. Sesame Drive,CAMERON,Harlingen,NA,NA,NA,NA,1000,NA,1000,-95.5956731,32.7717779
DSHS PHR 4/5N HQ - Tyler (RE),2521 W Front St,SMITH,Tyler,NA,NA,NA,100,1000,700,1800,-95.598641,32.7686316
Dshs Phr 9 /10 Hq - El Paso (Re),401 E Franklin Ave Ste 210,EL PASO,El Paso,NA,NA,NA,NA,NA,200,200,-95.5996418,32.7672814
Dshs Phr 9/10 Brady,1004 S Bridge St,MCCULLOCH,Brady,NA,100,NA,NA,NA,100,200,-95.6002985,32.7668509
Dshs raymondville,174 s. 13 th,WILLACY,Raymondville,NA,NA,NA,100,NA,200,300,-95.6042801,32.7638182
Dshs Rio Grande City,608 N Garza St,STARR,Rio Grande City,NA,200,100,NA,NA,100,400,-95.6044838,32.7638182
Dshs Sonora Clinic,103 E Main St,SUTTON,Sonora,NA,NA,NA,NA,100,NA,100,-95.6053884,32.7626671
DSHS Uvalde,112 Joe Carper Dr,UVALDE,Uvalde,NA,NA,NA,NA,NA,200,200,-95.6070304,32.7624871
DSHS Vernon,1531 Cumberland St,WILBARGER,Vernon,NA,NA,NA,100,NA,NA,100,-95.6108893,32.7622502
Dshs Zapata,1305 Kennedy Street,ZAPATA,Zapata,NA,100,NA,NA,NA,200,300,-95.6123437,32.7596673
E.A. Squatty Lyons Health Center,1712 1st St E Ste M20,HARRIS,Humble,NA,200,NA,NA,NA,NA,200,-95.6175814,32.7583647
Eagle Pharmacy,1404 S Main St,SMITH,Lindale,NA,500,NA,NA,NA,NA,500,-95.6198151,32.7580596
Eagle Pharmacy,700 S. College Ave,ARCHER,Holliday,NA,100,NA,NA,NA,NA,100,-95.62025,32.7578937
East Belt Family Medicine,5402 E Sam Houston Pkwy N,HARRIS,Houston,NA,NA,NA,100,NA,NA,100,-95.6218106,32.7554567
East Texas Community Health Services,1309 S. University Dr.,NACOGDOCHES,Nacogdoches,NA,NA,NA,100,NA,NA,100,-95.6235351,32.7552133
Eastland Memorial Hospital,Po Box 897,EASTLAND,Eastland,NA,NA,300,NA,100,NA,400,-95.6236173,32.7539698
Edinburg Cisd School Based Health Center,1601 E Sprague St,HIDALGO,Edinburg,NA,500,NA,NA,NA,NA,500,-95.6239678,32.7506007
Edinburg Regional Medical Center,1102 W. Trenton Road,CAMERON,Edinburg,NA,1400,NA,NA,NA,NA,1400,-95.6243153,32.7505613
Edinburg Regional Medical Center,1102 W. Trenton Road,HIDALGO,Edinburg,NA,NA,100,NA,NA,NA,100,-95.6243564,32.7491971
Eduardo Guzman Md,2308 Hwy 83 Ste F,HIDALGO,Penitas,NA,NA,NA,100,NA,NA,100,-95.6271991,32.7490929
El Campo Memorial Hospital,303 Sandy Corner Rd,WHARTON,El Campo,NA,NA,300,NA,100,NA,400,-95.6274772,32.7487036
El Campo Memorial Hospital Rhc,1403 Valhalla Dr,WHARTON,Wharton,NA,NA,NA,NA,200,NA,200,-95.6277236,32.7481906
El Centro De Corazon Magnolia Clinic,7037 Capitol St,HARRIS,Houston,NA,NA,NA,NA,NA,100,100,-95.63105,32.7481845
El Indio Hwy Clinic,4018 El Indio Hwy,MAVERICK,Eagle Pass,NA,100,NA,NA,NA,NA,100,-95.6311215,32.74812
El Paso Children's Hospital,4845 Alameda Ave,EL PASO,El Paso,NA,700,NA,700,NA,NA,1400,-95.6311732,32.7478201
El Paso Drive Iz Clinic El Paso Dph,5115 El Paso Dr,EL PASO,El Paso,NA,NA,NA,100,NA,NA,100,-95.6315018,32.7459072
El Paso Fire Department,301 George Perry,EL PASO,El Paso,NA,NA,NA,NA,5000,NA,5000,-95.6317482,32.7458041
El Paso Fire Department,6800 Delta,EL PASO,El Paso,NA,900,NA,NA,NA,NA,900,-95.632088,32.7446994
El Paso Psychiatric Center,4615 Alameda Ave,EL PASO,El Paso,NA,200,100,NA,NA,NA,300,-95.6344772,32.7445519
El Paso Pulmonary Association - El Paso,4305 N. Mesa Ste A 4305 N Mesa St,EL PASO,El Paso,NA,100,NA,NA,NA,NA,100,-95.6348694,32.7434434
"El Paso Wellness Associates, LLC",1600 N Lee Trevino,EL PASO,El Paso,NA,NA,NA,100,NA,NA,100,-95.6357319,32.7428374
Electra Memorial Hospital,1207 S Bailey St,WICHITA,Electra,NA,300,NA,NA,NA,NA,300,-95.6362247,32.7426506
Elm Avenue Community & Dental Clinic,609 Elm St,MCLENNAN,Waco,NA,NA,NA,NA,NA,100,100,-95.6362247,32.7414984
Emergency Care Of East Houston,15119 Wallisville Road,HARRIS,Houston,NA,NA,NA,NA,100,NA,100,-95.6364776,32.7413272
"Emergency Hospital Systems, LLC",300 E Crockett,LIBERTY,Cleveland,NA,NA,NA,NA,NA,975,975,-95.6365073,32.7405792
Encompass Health Rehabilitation Hospital of Abilene,6401 Directors Parkway,TAYLOR,Abilene,NA,NA,200,NA,NA,NA,200,-95.6388944,32.7393918
"Encompass Health Rehabilitation Hospital of Katy,",23331 Grand Reserve Dr,HARRIS,Katy,NA,100,100,NA,NA,NA,200,-95.6407511,32.738779
Encompass Rehabilitation Hospital of Pearland,2121 Business Center Drive,BRAZORIA,Pearland,NA,NA,100,NA,NA,NA,100,-95.6409628,32.7384429
Endeavor Clinical Trials,8042 Wurzbach,BEXAR,San Antonio,NA,300,NA,NA,NA,NA,300,-95.6417522,32.7370285
Ennis Regional Medical Center,2201 W Lampasas St,ELLIS,Ennis,NA,NA,200,100,NA,NA,300,-95.6442934,32.736806
Envoy Hospice,"3180 College St,",JEFFERSON,Beaumont,NA,NA,NA,NA,100,NA,100,-95.6453432,32.7366137
EP FAMILY DOCTOR,2270 Joe Battle Suite M-N,EL PASO,El Paso,NA,500,NA,NA,NA,NA,500,-95.6455734,32.7366137
Eubank Drug LLC,1510 N BRAZOS ST,HILL,Whitney,NA,NA,NA,100,NA,NA,100,-95.645767,32.7358538
"Excel Urgent Care, PLLC",25801 Hwy 290,HARRIS,Cypress,NA,100,NA,NA,NA,NA,100,-95.6465345,32.7350565
Fairfield Family Physicians,15201 Mason Rd Ste 1200,HARRIS,Cypress,NA,NA,NA,100,NA,NA,100,-95.647356,32.7343677
Fairview Dermatology,331 Town Pl,COLLIN,McKinney,NA,300,NA,NA,NA,NA,300,-95.6475841,32.7340308
Fairway Medical Clinic 2,7701 W Bellfort St Ste 102,HARRIS,Houston,NA,200,NA,NA,NA,NA,200,-95.6495743,32.7339871
Falls Community Hospital & Clinic,322 Coleman St,FALLS,Marlin,NA,NA,100,NA,NA,975,1075,-95.6732414,32.7337607
Family 1st Care,1615 Hospital Blvd Ste A,COOKE,Gainesville,NA,100,NA,500,NA,NA,600,-95.6781662,32.7334098
Family Care Clinic Of Bushland,1600 S Fm 2381,POTTER,Amarillo,NA,NA,NA,100,NA,NA,100,-95.6837631,32.7333788
Family Circle Of Care Athens,1001 N Palestine St,HENDERSON,Athens,NA,NA,NA,NA,NA,100,100,-95.6852805,32.7331994
Family Emergency Rooms Cedar Park,3620 E. WHITESTONE BLVD.,WILLIAMSON,Cedar Park,NA,500,NA,NA,300,6000,6800,-95.6854073,32.7328682
Family First Urgent Care,2510 S Loop 336 W,MONTGOMERY,Conroe,NA,NA,NA,100,NA,NA,100,-95.6863011,32.7324935
Family Health And Wellness At Lake Aire,2423 Williams Dr,WILLIAMSON,Georgetown,NA,NA,NA,NA,NA,100,100,-95.6865993,32.7324823
Family Health Center - Perryton,3019 S Main St,OCHILTREE,Perryton,NA,100,NA,NA,NA,NA,100,-95.6889187,32.7324823
Family Health Center - Waco,1600 Providence Dr,MCLENNAN,Waco,NA,NA,NA,NA,NA,100,100,-95.6902579,32.7324823
Family Health Center Llp,2768 Pharmacy Rd,STARR,Rio Grande City,NA,100,NA,NA,NA,NA,100,-95.6908334,32.731559
Family Health Center Of Bastrop,3101 Highway 71 E Ste 101,BASTROP,Bastrop,NA,NA,NA,NA,100,NA,100,-95.6913535,32.7308845
Family Health Clinic Arlington,1115 E Pioneer Pkwy,TARRANT,Arlington,NA,NA,NA,100,NA,NA,100,-95.6913707,32.7296877
Family Health services of Alpine,406 S Summer st,BREWSTER,Alpine,NA,400,NA,NA,NA,NA,400,-95.6915806,32.7296584
Family Healthcare - Denton,3105 Colorado Blvd,DENTON,Denton,NA,NA,NA,200,NA,NA,200,-95.6915922,32.7294505
Family Healthcare Of Bovina,1100 Highway 86,PARMER,Bovina,NA,NA,NA,200,NA,NA,200,-95.6917378,32.7289505
Family Life Medical,508 Medical Center Blvd,MONTGOMERY,Conroe,NA,500,NA,NA,NA,NA,500,-95.6928636,32.7280934
Family Medical And Specialty Clinic,2790 Pharmacy Rd Ste B,STARR,Rio Grande City,NA,100,NA,NA,NA,NA,100,-95.6953934,32.7273948
Family Medicine Assoc Of Round Rock,7200 Wyoming Springs Dr Ste 600,WILLIAMSON,Round Rock,NA,NA,NA,300,NA,NA,300,-95.6978542,32.727173
Family Medicine Associates of El Paso,9398 Viscount Blvd,EL PASO,El Paso,NA,500,NA,200,NA,NA,700,-95.7012447,32.7268053
Family Medicine At Sterling Ridge,10110 Woodlands Pkwy,MONTGOMERY,Spring,NA,NA,NA,100,NA,NA,100,-95.7032883,32.7268053
Family Medicine Center - Groesbeck,701 Mcclintic Dr,LIMESTONE,Groesbeck,NA,NA,NA,NA,100,NA,100,-95.7046194,32.7258176
Family Medicine Clinic - Pearsall,151 Medical Dr,FRIO,Pearsall,NA,200,NA,300,NA,NA,500,-95.7072382,32.7257468
Family Medicine Specialists,21800 Katy Fwy,HARRIS,Katy,NA,500,NA,NA,NA,NA,500,-95.7113092,32.7250441
Family Pharmacy,1720 Hillcrest Dr,WILBARGER,Vernon,NA,NA,NA,100,NA,NA,100,-95.7169845,32.7227889
"FAMILY PHYSICIANS CLINIC, LLP",606 S BROADWAY ST,HIDALGO,McAllen,NA,500,NA,NA,NA,NA,500,-95.7169845,32.72249
Family Practice Associates,220 Wesley Dr,KERR,Kerrville,NA,NA,NA,100,NA,NA,100,-95.717149,32.7224056
Family Practice Rural Health Clinic,303 N Brown St,HAMILTON,Hamilton,NA,300,NA,NA,NA,NA,300,-95.7218788,32.7218479
Family Wellness Clinic,1809 Lockwood Ave,LYNN,Tahoka,NA,NA,NA,100,NA,NA,100,-95.7219752,32.7213907
Family Wellness Clinic Ut Austin School Of Nursing,2901 N Interstate 35 Ste 1.301,TRAVIS,Austin,NA,200,NA,NA,NA,NA,200,-95.7263622,32.7203429
Familyfirst Healthcare,5915 82nd St,LUBBOCK,Lubbock,NA,400,NA,NA,NA,NA,400,-95.7330368,32.7203027
Farmers Branch Fire Department,13333 Hutton Dr,DALLAS,Farmers Branch,NA,100,NA,NA,NA,NA,100,-95.7382129,32.7201474
Father Joseph Obrien Health Clinic,142 Champion Ave,CAMERON,Port Isabel,NA,NA,NA,100,NA,NA,100,-95.7382922,32.7188585
FE Medical Services PLLC Cllge Stn,Reynolds Medical Building Suite 159,BRAZOS,College Station,NA,NA,NA,NA,NA,975,975,-95.7389093,32.7181641
First Baptist Medical Center Dallas,8111 Meadow Road,DALLAS,Dallas,NA,NA,100,NA,NA,NA,100,-95.7422257,32.7160658
"First Medical Response of Texas, Inc",854 Wild Rose Drive,TRAVIS,Austin,NA,1000,NA,NA,NA,NA,1000,-95.7448592,32.7134442
Fisher County Hospital District,774 State Highway 70 N,FISHER,Rotan,NA,NA,NA,NA,200,NA,200,-95.7460274,32.7131861
Flower Mound Fire Department,3911 S. Broadway Ave,DENTON,Flower Mound,NA,500,NA,NA,NA,NA,500,-95.7462493,32.712311
Foard County Clinic,200 North 1st Street,FOARD,Crowell,NA,NA,NA,NA,100,NA,100,-95.7466857,32.7120681
Fondren Orthopedic Group LLP,7401 Main Street,HARRIS,Houston,NA,NA,NA,300,NA,NA,300,-95.7477144,32.7106808
Fort Bend Pediatrics,4646 Riverstone Blvd,FORT BEND,Missouri City,NA,100,NA,NA,NA,NA,100,-95.7478188,32.7103534
Fort Duncan Regional Medical Center,3333 N Foster Maldonado Blvd,MAVERICK,Eagle Pass,NA,NA,NA,NA,1200,NA,1200,-95.7484962,32.7100357
Fort Duncan Regional Medical Center - Eagle Pass,3333 N Foster Maldonado Blvd,MAVERICK,Eagle Pass,NA,NA,NA,NA,NA,1200,1200,-95.7505857,32.7088026
Foundation Surgical Hospital Of San Antonio,9522 Huebner Rd,BEXAR,San Antonio,NA,500,NA,NA,NA,NA,500,-95.7509985,32.7082388
Fox Rural Health Clinic,1001 Us Highway 83 N,CHILDRESS,Childress,NA,100,NA,200,NA,NA,300,-95.7520352,32.7081038
Frank S Parma Md,2700 Citizens Plz Ste 202,VICTORIA,Victoria,NA,NA,NA,100,NA,NA,100,-95.7538458,32.7074993
Franklin County Rural Health Clinic,506 Texas Highway 37,FRANKLIN,Mount Vernon,NA,NA,NA,100,NA,NA,100,-95.7608422,32.7067875
Freedom Urgent Care,300 W Central Texas Exwpy Ste 115,BELL,Harker Heights,NA,100,NA,NA,NA,NA,100,-95.7652462,32.7058357
Freeport Community Health Network- 061447,905 N Gulf Blvd Ste 100,BRAZORIA,Freeport,NA,100,NA,NA,NA,NA,100,-95.7660925,32.70523
Freestone Medical Center DBA Freestone Health Clinic,734 West Commerce,FREESTONE,Fairfield,NA,100,NA,NA,NA,NA,100,-95.76804,32.7048048
Fresenius Dickinson Dialysis,3800 Hughes Ct,GALVESTON,Dickinson,NA,NA,NA,NA,NA,975,975,-95.770572,32.7045732
Fresenius Kidney Care,1202 Central Texas Expressway,LAMPASAS,Lampasas,NA,NA,NA,100,NA,NA,100,-95.7713795,32.7044885
Fresh By Brookshires Pharmacy 801,6991 Old Jacksonville Hwy,SMITH,Tyler,NA,NA,NA,100,NA,NA,100,-95.7760406,32.7015688
Friendly Neighborhood Health Clinic Pllc,617 E Loop 499,CAMERON,Harlingen,NA,NA,NA,200,NA,NA,200,-95.7776415,32.6998084
Frio Regional Hospital,200 S Interstate 35,FRIO,Pearsall,NA,200,NA,NA,NA,975,1175,-95.7784245,32.6931143
Frio Regional Primary Care & Urgent Care Clinic,801 W Fm 117,FRIO,Dilley,NA,100,NA,100,NA,NA,200,-95.7785883,32.6927206
Friona Rural Health Clinic,1307 Cleveland Ave Ste B,PARMER,Friona,NA,100,NA,100,NA,NA,200,-95.77986,32.6925288
Frisco Fire Department,8601 Gary Burns Dr.,COLLIN,Frisco,NA,300,NA,NA,NA,NA,300,-95.7859014,32.6876941
Frisco Medical Center,5601 Warren Pkwy,COLLIN,Frisco,NA,1800,100,NA,NA,NA,1900,-95.7859014,32.6849588
Frontera Healthcare Network-Junction,509 College St,KIMBLE,Junction,NA,100,NA,NA,NA,NA,100,-95.7863342,32.6829476
Frontera Healthcare Network Mason Clinic,216 E College,MASON,Mason,NA,100,NA,NA,NA,NA,100,-95.7863342,32.6828855
Ft Bend Family Hlth Ctr Accesshealth - Missouri City,307 Texas Pkwy Ste 100,FORT BEND,Missouri City,NA,NA,NA,NA,NA,100,100,-95.7883417,32.6801858
Ft Bend Family Hlth Ctr Accesshealth - Stafford,10435 Greenbough Dr Ste 300,FORT BEND,Stafford,NA,NA,NA,NA,NA,100,100,-95.8011902,32.6793912
Gainesville State School,1379 Fm 678,COOKE,Gainesville,NA,NA,NA,200,NA,NA,200,-95.8070752,32.6783473
Galo A Rodarte Md Pa,400 E Robinson Ave,EL PASO,El Paso,NA,NA,NA,200,NA,NA,200,-95.8099221,32.6768894
Galveston County Health District,9850 B Emmett F Lowry EXpy,GALVESTON,Texas City,NA,200,NA,NA,NA,NA,200,-95.8110583,32.6764144
Garcia's Pharmacy LLC,101 S Stuart Place Rd,CAMERON,Harlingen,NA,100,NA,NA,NA,NA,100,-95.8146526,32.676035
Garland Health Center,802 Hopkins St,DALLAS,Garland,NA,NA,NA,100,NA,NA,100,-95.8157117,32.6734705
Garland Independent Pharmacy,3641 Broadway Blvd,DALLAS,Garland,NA,NA,NA,100,NA,NA,100,-95.820056,32.672841
Gateway Hlth Comm Ctr Inc,2007 S Zapata Hwy,WEBB,Laredo,NA,NA,NA,100,NA,NA,100,-95.8201796,32.6711211
"Gene McDaniel D.O., P.A",308 west hwy 199,PARKER,Springtown,NA,500,NA,NA,NA,NA,500,-95.8231687,32.6656781
Genesis Medical Group Springwoods,2255 E Mossy Oaks Rd,HARRIS,Spring,NA,500,NA,NA,NA,NA,500,-95.825213,32.6647815
Genoa Healthcare Llc 20076,1601 N Anglin St Ste 113,JOHNSON,Cleburne,NA,NA,NA,100,NA,NA,100,-95.8416478,32.6616591
Georgetown Family Emergency Room,1210 W. University Ave.,WILLIAMSON,Georgetown,NA,NA,NA,200,NA,NA,200,-95.8445933,32.660865
Gibson Pharmacy,815 N OCONNOR RD,DALLAS,Irving,NA,NA,NA,100,NA,NA,100,-95.845867,32.6605563
Glenn Lakes Pharmacy Inc,3640 Glenn Lakes Ln,FORT BEND,Missouri City,NA,200,NA,NA,NA,NA,200,-95.8470882,32.659201
Glenview Professional Pharmacy,7640 Glenvie7640 Glenview Dr Ste A,TARRANT,North Richland Hi,NA,100,NA,NA,NA,NA,100,-95.8470941,32.6548724
Global Health,7720 Spencer Highway,HARRIS,Pasadena,NA,500,NA,NA,NA,NA,500,-95.850513,32.6541224
Global Rehab - Fort Worth,6601 Harris Parkway,TARRANT,Fort Worth,NA,100,100,NA,NA,NA,200,-95.8537048,32.6519498
Gonzaba Medical Group Woodlawn Clinic,902 Bandera Rd,BEXAR,San Antonio,NA,1000,NA,NA,NA,NA,1000,-95.874215,32.651503
Grace Clinic of Lubbock,4515 Marsha Sharp Fwy,LUBBOCK,Lubbock,NA,2100,NA,NA,NA,NA,2100,-95.8765487,32.6497928
"Graham Heath Care, Pllc",1005 State Highway 16 S,YOUNG,Graham,NA,NA,NA,100,NA,NA,100,-95.8765631,32.6493218
Graham Pharmacy,1601 W Wall St,MIDLAND,Midland,NA,NA,NA,100,NA,NA,100,-95.8814135,32.6482413
Granbury Hospital Corporation,1310 Paluxy Rd,HOOD,Granbury,NA,700,NA,NA,NA,NA,700,-95.8974351,32.6482198
Grayson County Health Department-Sherman,515 N Walnut St,GRAYSON,Sherman,NA,NA,400,NA,NA,NA,400,-95.9043245,32.6441379
Grimes St Joseph Health Center,210 S Judson St,GRIMES,Navasota,NA,NA,100,NA,NA,NA,100,-95.910442,32.6398937
Gruene Lake Medical,948 Gruene Road,COMAL,New Braunfels,NA,NA,NA,100,NA,NA,100,-95.910442,32.6068135
Gruesbeck Medical Clinic Cable Ranch Rd,1415 Cable Ranch Rd,BEXAR,San Antonio,NA,NA,NA,100,NA,NA,100,-95.9114209,32.60643
Gruesbeck Medical Clinic Nw 24th St,323 Nw 24th Street,BEXAR,San Antonio,NA,100,NA,NA,NA,NA,100,-95.9123906,32.6030305
Guadalupe Regional Medical Center,1215 E Court,GUADALUPE,Seguin,NA,800,NA,NA,NA,NA,800,-95.9138554,32.6029703
Gulf Coast Health Center Inc.,2548 Memorial Blvd,JEFFERSON,Port Arthur,NA,NA,NA,NA,NA,100,100,-95.9142267,32.5989854
Hacs-Bautista Pediatric Health Center,902 Frostwood Dr.,HARRIS,Houston,NA,NA,NA,NA,NA,100,100,-95.9471464,32.5984409
Hamilton General Hospital,400 N Brown St,HAMILTON,Hamilton,NA,NA,400,NA,NA,NA,400,-95.9497026,32.5929546
Hampton Apothecary Lp,2701 S Hampton Rd. Ste 100,DALLAS,Dallas,NA,100,NA,NA,NA,NA,100,-95.95814,32.5922986
Hansford County Hospital District (Hospital),707 Roland St,HANSFORD,Spearman,NA,200,NA,NA,NA,200,400,-95.9700482,32.5915214
Hardeman County Clinic,404 Mercer St,HARDEMAN,Quanah,NA,NA,NA,100,NA,NA,100,-95.9700812,32.5880658
HARDEMAN COUNTY MEMORIAL HOSPITAL,402 MERCER ST,HARDEMAN,Quanah,NA,100,NA,NA,NA,NA,100,-95.978292,32.586731
Harlingen Medical Center,5501 S Expressway 77,CAMERON,Harlingen,NA,NA,800,NA,NA,NA,800,-95.9916937,32.5866401
Harrell A Grand MD,3801 Gaston Ave,DALLAS,Dallas,NA,NA,NA,100,NA,NA,100,-96.0200347,32.57876
Harris County Hospital District Hchd,2525 Holly Hall St,HARRIS,Houston,NA,NA,200,NA,NA,NA,200,-96.0580204,32.5764294
Harris County Public Health,2223 West Loop South,HARRIS,Houston,NA,NA,NA,NA,8000,NA,8000,-96.0646514,32.5761597
Harvest Drug And Gift - Wichita Falls - 4426 Kell Blvd,4426 Kell Blvd,WICHITA,Wichita Falls,NA,100,NA,300,NA,NA,400,-96.0676486,32.573863
Harvester Health And Wellness Clinic,701 N Price Rd,GRAY,Pampa,NA,400,NA,NA,NA,NA,400,-96.0727802,32.5698025
Hatcher Station Health Center,4600 Scyene Rd,DALLAS,Dallas,NA,NA,NA,NA,100,NA,100,-96.0776415,32.5659533
HCA Houston Healthcare Clear Lake,500 Medical Center Blvd,HARRIS,Webster,NA,400,NA,NA,200,NA,600,-96.0841376,32.5650416
Hca Houston Healthcare Mainland,6801 Emmett F Lowry Expy,GALVESTON,Texas City,NA,NA,NA,NA,100,NA,100,-96.0857243,32.5635164
HCA Houston Healthcare North Cypress,21214 Northwest Fwy,HARRIS,Cypress,NA,NA,800,NA,200,NA,1000,-96.0901692,32.5614554
Hca Houston Healthcare Northwest,710 Cypress Creek Parkway,HARRIS,Houston,NA,NA,1100,NA,200,NA,1300,-96.0902619,32.5586045
HCA Houston Healthcare Northwest,NA,HARRIS,Houston,1950,NA,NA,NA,NA,NA,1950,-96.10547,32.5559938
HCA Houston Healthcare Pearland,11100 Shadow Creek Parkway,BRAZORIA,Pearland,NA,NA,100,NA,NA,NA,100,-96.1061452,32.5478551
HCA Houston Healthcare Southeast,4000 spencer highway,HARRIS,Pasadena,NA,NA,NA,100,200,NA,300,-96.1081418,32.5476684
HCA Houston Healthcare Southeast,NA,HARRIS,Pasadena,975,NA,NA,NA,NA,NA,975,-96.1086799,32.5474413
HCA Houston Healthcare Tomball,605 Holderreith Blvd,HARRIS,Tomball,NA,800,NA,NA,NA,NA,800,-96.1093422,32.546983
HCPH Main Office,2223 West Loop South,HARRIS,Houston,NA,3000,NA,3000,NA,9000,15000,-96.1108739,32.5464738
Healing Hands Ministries,8515 Greenville Ave Ste N-112,DALLAS,Dallas,NA,100,NA,NA,NA,NA,100,-96.116225,32.5432976
Health by Design Valero Three Rivers Clinic,100 W LeRoy St,LIVE OAK,Three Rivers,NA,NA,NA,100,NA,NA,100,-96.117396,32.5432323
Health Center of Southeast Texas,307 N. William Barnett Ave.,LIBERTY,Cleveland,NA,NA,NA,500,NA,NA,500,-96.1174149,32.543222
Health Center Of Southeast Texas-Liberty,1202 N Travis St,LIBERTY,Liberty,NA,NA,NA,100,NA,NA,100,-96.124205,32.538015
Health Point Bcs,3370 S Texas Ave,BRAZOS,Bryan,NA,NA,NA,100,NA,NA,100,-96.124325,32.5376649
Health Services Of North Texas,4304 Mesa Dr,DENTON,Denton,NA,NA,NA,NA,NA,100,100,-96.1276245,32.5370749
Healthbridge Children's Hospital,2929 Woodland Park Dr,HARRIS,Houston,NA,NA,NA,NA,100,NA,100,-96.1403345,32.536904
Healthcare Associates Of Irving,6161 N State Highway 161,DALLAS,Irving,NA,200,NA,NA,NA,NA,200,-96.1580396,32.5335926
Healthcare Associates of Irving LLP,7501 Lakeview Pkwy,DALLAS,Rowlett,NA,200,NA,NA,NA,NA,200,-96.1667017,32.53344
"Healthcare Associates of Irving, LLP",1001 W Southlake Blvd,TARRANT,Southlake,NA,200,NA,NA,NA,NA,200,-96.1697679,32.5332101
"Healthcare Associates of Irving, LLP",1205 Avondale Haslet Rd,TARRANT,Haslet,NA,100,NA,NA,NA,NA,100,-96.1702651,32.533119
"Healthcare Associates of Irving, LLP",1305 Airport Fwy,TARRANT,Bedford,NA,200,NA,NA,NA,NA,200,-96.1740981,32.5311926
"Healthcare Associates of Irving, LLP",221 Regency Pkwy,TARRANT,Mansfield,NA,200,NA,NA,NA,NA,200,-96.1896134,32.5303511
"Healthcare Associates of Irving, LLP",2760 Virginia Pkwy,COLLIN,McKinney,NA,NA,NA,200,NA,NA,200,-96.199692,32.5260255
"Healthcare Associates of Irving, LLP",3501 N MacArthur Blvd,DALLAS,Irving,NA,100,NA,NA,NA,NA,100,-96.2105724,32.525559
"Healthcare Associates of Irving, LLP",546 E Sandy Lake Rd,DALLAS,Coppell,NA,200,NA,NA,NA,NA,200,-96.2135783,32.5206366
"Healthcare Associates of Irving, LLP",6201 Matlock Rd,TARRANT,Arlington,NA,100,NA,NA,NA,NA,100,-96.251949,32.5200357
"Healthcare Associates of Irving, LLP",6435 South FM 549,ROCKWALL,Rockwall,NA,100,NA,NA,NA,NA,100,-96.2544178,32.5164203
"Healthcare Associates of Irving, LLP",661 E Main St,ELLIS,Midlothian,NA,200,NA,NA,NA,NA,200,-96.2601684,32.5144718
"Healthcare Associates of Irving, LLP",8700 US Hwy 380,DENTON,Aubrey,NA,100,NA,NA,NA,NA,100,-96.2609947,32.5114477
"Healthcare Associates Of Irving, LLP",910 N. Main St,TARRANT,Euless,NA,200,NA,NA,NA,NA,200,-96.2638992,32.5106435
Healthcare Associates of Southlake,2106 East State Hwy 114,TARRANT,Southlake,NA,NA,NA,100,NA,NA,100,-96.2641749,32.5091654
HealthCore Physicians Group,"8210 Walnut Hill Ln, Suite 230",DALLAS,Dallas,NA,200,NA,NA,NA,NA,200,-96.2695136,32.5045841
Healthpoint Abc,1602 Rock Prairie Rd,BRAZOS,College Station,NA,NA,NA,100,NA,NA,100,-96.2708719,32.5038849
Healthpoint Centerville,607 W Lassater,LEON,Centerville,NA,NA,NA,NA,NA,100,100,-96.279247,32.5027627
Healthpoint Franklin,808 W Us Highway 79,ROBERTSON,Franklin,NA,NA,NA,NA,NA,100,100,-96.2795053,32.5026427
Healthpoint Hempstead,215 Fm 1488 Rd,WALLER,Hempstead,NA,NA,NA,NA,NA,100,100,-96.2859614,32.5008276
Healthpoint In Hearne,709 Barton St,ROBERTSON,Hearne,NA,NA,NA,NA,NA,100,100,-96.2893282,32.5008276
Healthpoint Madisonville,100 W Cross St,MADISON,Madisonville,NA,NA,NA,NA,NA,100,100,-96.2895514,32.499418
Healthpoint Memorial,1301 Memorial Drive,BRAZOS,Bryan,NA,NA,NA,100,NA,NA,100,-96.289711,32.4969404
Healthpoint Navasota,1905 Dove Crossing Ln Ste C,GRIMES,Navasota,NA,NA,NA,NA,NA,100,100,-96.289711,32.4802361
Healthpoint Rockdale,1701 Pecos Ave Ste B,MILAM,Rockdale,NA,NA,NA,NA,NA,100,100,-96.2915027,32.4787289
Healthpoint Somerville,600 Memory Lane,BURLESON,Somerville,NA,NA,NA,NA,NA,100,100,-96.2922501,32.4744303
Healthpoint Trinity,315 Prospect Dr,TRINITY,Trinity,NA,NA,NA,NA,NA,975,975,-96.2974786,32.4739594
Healthsouth Riosa Rehabilitation Hospital Pharmacy,9119 Cinnamon Hl,BEXAR,San Antonio,NA,NA,NA,NA,300,NA,300,-96.2976892,32.4739414
HEALTHVILLE PHARMACY,7215 MCPHERSON RD,WEBB,Laredo,NA,100,NA,NA,NA,NA,100,-96.2988336,32.4739135
Heart Hospital Of Austin,3801 N Lamar Blvd,TRAVIS,Austin,NA,400,NA,700,NA,NA,1100,-96.3139269,32.4730841
"Heaton Ear, Nose and Throat",1136 E Grande Blvd,SMITH,Tyler,NA,500,NA,NA,NA,NA,500,-96.318952,32.4722881
Heavenly Hands Family Medical Clinic Pllc,7602 Great Trinity Forest Way,DALLAS,Dallas,NA,NA,NA,100,NA,NA,100,-96.3189856,32.4718235
HEB Pharmacy 0070,1345 Barrow St,TAYLOR,Abilene,NA,100,NA,100,NA,NA,200,-96.3214757,32.4718235
HEB Pharmacy 013,4031 E Us Highway 83,STARR,Rio Grande City,NA,100,NA,100,NA,NA,200,-96.3328681,32.4714232
HEB Pharmacy 102,8503 Nw Military Hwy,BEXAR,San Antonio,NA,100,NA,NA,NA,NA,100,-96.3357555,32.4704905
HEB Pharmacy 106,1015 S Ww White Rd,BEXAR,San Antonio,NA,100,NA,NA,NA,NA,100,-96.3435877,32.4704282
HEB Pharmacy 107,101 S Clay St,ELLIS,Ennis,NA,100,NA,100,NA,NA,200,-96.344894,32.4695206
HEB Pharmacy 108,20935 Us Hwy 281 N,BEXAR,San Antonio,NA,100,NA,NA,NA,NA,100,-96.3449173,32.4673897
HEB Pharmacy 109,9710 Katy Freeway,HARRIS,Houston,NA,100,NA,NA,NA,NA,100,-96.34596,32.4605638
HEB Pharmacy 110,8900 Highway 6,FORT BEND,Missouri City,NA,100,NA,NA,NA,NA,100,-96.3472761,32.4603266
HEB Pharmacy 136,1213 S Commerce St,CAMERON,Harlingen,NA,100,NA,NA,NA,NA,100,-96.3501548,32.4601449
HEB Pharmacy 139,5801 Weber Rd,NUECES,Corpus Christi,NA,100,NA,NA,NA,NA,100,-96.350652,32.4587409
HEB Pharmacy 14,5401 South Fm 1626,HAYS,Kyle,NA,100,NA,NA,NA,NA,100,-96.3507177,32.4571962
HEB Pharmacy 16,165 Nw John Jones Dr,JOHNSON,Burleson,NA,100,NA,100,NA,NA,200,-96.3508996,32.4550256
HEB Pharmacy 161,7112 Ed Bluestein Blvd Ste 125,TRAVIS,Austin,NA,100,NA,NA,NA,NA,100,-96.3594706,32.4547484
HEB Pharmacy 164,15000 San Pedro Ave,BEXAR,San Antonio,NA,100,NA,NA,NA,NA,100,-96.3721406,32.4506987
HEB Pharmacy 168,1103 Morgan Blvd,CAMERON,Harlingen,NA,100,NA,NA,NA,NA,100,-96.3734917,32.4475105
HEB Pharmacy 172,1212 S Closner Blvd,HIDALGO,Edinburg,NA,100,NA,NA,NA,NA,100,-96.375508,32.4436203
HEB Pharmacy 178,6839 San Pedro Ave,BEXAR,San Antonio,NA,100,NA,NA,NA,NA,100,-96.3807465,32.4357067
HEB Pharmacy 182,3002 S 31st St,BELL,Temple,NA,100,NA,NA,NA,NA,100,-96.3862943,32.4331664
HEB Pharmacy 183,9414 N Lamar Blvd,TRAVIS,Austin,NA,100,NA,NA,NA,NA,100,-96.3887714,32.4323888
HEB Pharmacy 184,11158 Leopard St,NUECES,Corpus Christi,NA,100,NA,NA,NA,NA,100,-96.3961942,32.4315081
HEB Pharmacy 186,2310 E Saunders,WEBB,Laredo,NA,100,NA,NA,NA,NA,100,-96.3977442,32.4312217
HEB Pharmacy 189,2130 Culebra Rd,BEXAR,San Antonio,NA,100,NA,NA,NA,NA,100,-96.3979201,32.4307494
HEB Pharmacy 19,19337 Mcdonald St,ATASCOSA,Lytle,NA,100,NA,NA,NA,NA,100,-96.4003323,32.4257364
HEB Pharmacy 191,4821 Broadway St,BEXAR,San Antonio,NA,100,NA,NA,NA,NA,100,-96.4404379,32.4257364
HEB Pharmacy 195,11551 West Ave,BEXAR,San Antonio,NA,100,NA,NA,NA,NA,100,-96.4482622,32.4159554
HEB Pharmacy 20,24224 Northwest Fwy,HARRIS,Cypress,NA,100,NA,NA,NA,NA,100,-96.4493444,32.4117188
HEB Pharmacy 200,800 S Saint Marys St,BROOKS,Falfurrias,NA,100,NA,100,NA,NA,200,-96.460795,32.4115318
HEB Pharmacy 202,5808 Burnet Rd,TRAVIS,Austin,NA,100,NA,NA,NA,NA,100,-96.463092,32.4064195
HEB Pharmacy 205,721 Castroville Rd,BEXAR,San Antonio,NA,100,NA,NA,NA,NA,100,-96.4632478,32.4015198
HEB Pharmacy 207,1301 Guadalupe St,WEBB,Laredo,NA,100,NA,NA,NA,NA,100,-96.4654751,32.3997818
HEB Pharmacy 210,4320 S Alameda St,NUECES,Corpus Christi,NA,100,NA,NA,NA,NA,100,-96.4660455,32.3968714
HEB Pharmacy 211,415 N New Braunfels Ave,BEXAR,San Antonio,NA,100,NA,NA,NA,NA,100,-96.4671613,32.3964026
HEB Pharmacy 212,3200 N 10th St,HIDALGO,McAllen,NA,100,NA,NA,NA,NA,100,-96.4687851,32.3882937
HEB Pharmacy 218,12407 N Mopac,TRAVIS,Austin,NA,100,NA,NA,NA,NA,100,-96.4695761,32.3855722
HEB Pharmacy 223,1115 E Main St,JIM WELLS,Alice,NA,100,NA,200,NA,NA,300,-96.4702423,32.3847105
Heb Pharmacy 224,7951 Guilbeau Rd,BEXAR,San Antonio,NA,100,NA,NA,NA,NA,100,-96.4704921,32.3746583
Heb Pharmacy 225,7010 Hwy 71 W,TRAVIS,Austin,NA,100,NA,NA,NA,NA,100,-96.4709918,32.3724969
Heb Pharmacy 226,Conway And 8th St,HIDALGO,Mission,NA,100,NA,NA,NA,NA,100,-96.4715747,32.3720642
Heb Pharmacy 227,2110 New Slaughter Lane,TRAVIS,Austin,NA,100,NA,NA,NA,NA,100,-96.4719312,32.3719016
Heb Pharmacy 229,6607 S Interstate 35,TRAVIS,Austin,NA,100,NA,NA,NA,NA,100,-96.4774041,32.3716266
Heb Pharmacy 230,14087 Oconnor Rd,BEXAR,San Antonio,NA,100,NA,NA,NA,NA,100,-96.4798412,32.3712955
Heb Pharmacy 231,1004 N Texas Ave,HIDALGO,Weslaco,NA,100,NA,NA,NA,NA,100,-96.4950415,32.3692694
Heb Pharmacy 233,1616 N Alabama Rd,WHARTON,Wharton,NA,100,NA,100,NA,400,600,-96.5034767,32.3689897
Heb Pharmacy 235,9255 Fm 471 West,BEXAR,San Antonio,NA,100,NA,NA,NA,NA,100,-96.5087101,32.3613024
Heb Pharmacy 236,1434 W Wells Branch Pkwy,TRAVIS,Pflugerville,NA,100,NA,NA,NA,NA,100,-96.516392,32.358724
Heb Pharmacy 237,1101 S Interstate 35,WILLIAMSON,Georgetown,NA,100,NA,NA,NA,NA,100,-96.5168503,32.358724
Heb Pharmacy 238,201 S 15th St,NAVARRO,Corsicana,NA,100,NA,NA,NA,NA,100,-96.5172253,32.354794
HEB Pharmacy 24,11521 North Fm 620,TRAVIS,Austin,NA,100,NA,NA,NA,NA,100,-96.5190172,32.3535369
Heb Pharmacy 243,641 E Hopkins St,HAYS,San Marcos,NA,100,NA,NA,NA,NA,100,-96.5284973,32.351331
HEB Pharmacy 25,925 10th St,WILSON,Floresville,NA,100,NA,NA,NA,NA,100,-96.5290599,32.3482649
Heb Pharmacy 253,3500 Leopard St,NUECES,Corpus Christi,NA,100,NA,NA,NA,NA,100,-96.5311873,32.3477806
Heb Pharmacy 255,4801 San Dario,WEBB,Laredo,NA,100,NA,NA,NA,NA,100,-96.5311873,32.3471525
HEB Pharmacy 26,3524 S New Braunfels,BEXAR,San Antonio,NA,100,NA,NA,NA,NA,100,-96.5334359,32.3447629
Heb Pharmacy 262,5601 Bandera Rd,BEXAR,San Antonio,NA,100,NA,NA,NA,NA,100,-96.5356865,32.3439848
Heb Pharmacy 263,1628 Central Blvd,CAMERON,Brownsville,NA,100,NA,NA,NA,NA,100,-96.5378122,32.3429531
Heb Pharmacy 265,170 E Whitestone Blvd,WILLIAMSON,Cedar Park,NA,100,NA,NA,NA,NA,100,-96.5421055,32.337978
Heb Pharmacy 269,10710 Research Blvd,TRAVIS,Austin,NA,100,NA,NA,NA,NA,100,-96.5433977,32.3372659
Heb Pharmacy 270,5425 S Padre Island,NUECES,Corpus Christi,NA,100,NA,NA,NA,NA,100,-96.5443773,32.3371327
HEB Pharmacy 28,2955 Gulf Fwy S,GALVESTON,League City,NA,100,NA,NA,NA,NA,100,-96.5479409,32.333856
HEB Pharmacy 29,701 S Capital Of Texas Hwy Ste D470,TRAVIS,Austin,NA,100,NA,NA,NA,NA,100,-96.5486084,32.3328216
Heb Pharmacy 291,613 S Exp Hwy 83,CAMERON,Harlingen,NA,100,NA,NA,NA,NA,100,-96.5537362,32.3271289
Heb Pharmacy 292,2700 7th St,MATAGORDA,Bay City,NA,100,NA,NA,NA,NA,100,-96.5659111,32.3256941
Heb Pharmacy 294,6580 Fm 78,BEXAR,San Antonio,NA,100,NA,NA,NA,NA,100,-96.5692005,32.3240459
HEB Pharmacy 31,12860 N Highway 183,WILLIAMSON,Austin,NA,100,NA,NA,NA,NA,100,-96.5698212,32.3203497
Heb Pharmacy 332,2950 Southmost Rd,CAMERON,Brownsville,NA,100,NA,NA,NA,NA,100,-96.5754793,32.3200101
Heb Pharmacy 333,101 E Goodnight Ave,SAN PATRICIO,Aransas Pass,NA,100,NA,100,NA,500,700,-96.5848855,32.319472
Heb Pharmacy 334,3601 Pecan Blvd,HIDALGO,McAllen,NA,100,NA,NA,NA,NA,100,-96.5851164,32.3184042
HEB Pharmacy 34,3750 Gattis School Rd,WILLIAMSON,Round Rock,NA,100,NA,NA,NA,NA,100,-96.5854456,32.3081737
Heb Pharmacy 351,103 W Elm St,JACKSON,Edna,NA,100,NA,NA,NA,300,400,-96.5859531,32.3079269
Heb Pharmacy 372,1955 Nacogdoches Rd,BEXAR,San Antonio,NA,100,NA,NA,NA,NA,100,-96.5938556,32.3068194
Heb Pharmacy 373,16900 N Fm 620,WILLIAMSON,Round Rock,NA,100,NA,NA,NA,NA,100,-96.5951071,32.2970436
HEB Pharmacy 38,901 W Expressway 83,HIDALGO,San Juan,NA,100,NA,NA,NA,NA,100,-96.5957329,32.2937792
Heb Pharmacy 380,651 S Walnut,COMAL,New Braunfels,NA,100,NA,NA,NA,NA,100,-96.5967946,32.2790625
Heb Pharmacy 381,601 Indian Trl,BELL,Harker Heights,NA,100,NA,NA,NA,NA,100,-96.5984238,32.2720623
HEB Pharmacy 382,3325 W Wadley Ave,MIDLAND,Midland,NA,100,NA,NA,NA,NA,100,-96.5999258,32.2713178
Heb Pharmacy 384,6030 Montgomery,BEXAR,San Antonio,NA,100,NA,NA,NA,NA,100,-96.6004473,32.2536341
Heb Pharmacy 385,300 W Olmos Dr,BEXAR,San Antonio,NA,100,NA,NA,NA,NA,100,-96.6005489,32.2414493
Heb Pharmacy 387,3801 E 42nd St,ECTOR,Odessa,NA,100,NA,NA,NA,NA,100,-96.6017824,32.2368766
Heb Pharmacy 388,6001 W Parmer Lane,TRAVIS,Austin,NA,100,NA,NA,NA,NA,100,-96.6034206,32.2348961
Heb Pharmacy 389,6000 West Ave,BEXAR,San Antonio,NA,100,NA,NA,NA,NA,100,-96.6040354,32.2347442
HEB Pharmacy 39,2509 N Main,BELL,Belton,NA,100,NA,NA,NA,NA,100,-96.6055302,32.227662
Heb Pharmacy 395,12777 W Interstate 10,BEXAR,San Antonio,NA,100,NA,NA,NA,NA,100,-96.6067058,32.2275781
Heb Pharmacy 397,18140 San Pedro Ave,BEXAR,San Antonio,NA,100,NA,NA,NA,NA,100,-96.6082497,32.2180694
Heb Pharmacy 398,2929 Thousand Oaks Dr,BEXAR,San Antonio,NA,100,NA,NA,NA,NA,100,-96.6090842,32.2084038
Heb Pharmacy 401,409 E Kleberg,KLEBERG,Kingsville,NA,100,NA,100,NA,NA,200,-96.611898,32.2080227
Heb Pharmacy 403,1207 E Main St,CORYELL,Gatesville,NA,100,NA,NA,NA,NA,100,-96.6130299,32.2068927
Heb Pharmacy 404,12400 Hwy 71 West,TRAVIS,Austin,NA,100,NA,NA,NA,NA,100,-96.6144881,32.1896193
HEB Pharmacy 411,219 W Oaklawn Rd,ATASCOSA,Pleasanton,NA,100,NA,NA,NA,NA,100,-96.6207991,32.1754355
Heb Pharmacy 412,100 E Houston St,BEE,Beeville,NA,100,NA,100,NA,NA,200,-96.6239419,32.1742245
Heb Pharmacy 413,3133 South Alameda,NUECES,Corpus Christi,NA,100,NA,NA,NA,NA,100,-96.6240661,32.172101
Heb Pharmacy 414,2508 S Day St,WASHINGTON,Brenham,NA,100,NA,100,NA,NA,200,-96.6281147,32.1719837
Heb Pharmacy 415,17460 Ih 35 N,GUADALUPE,Schertz,NA,100,NA,100,NA,NA,200,-96.6284277,32.1673525
Heb Pharmacy 416,450 E Travis St,FAYETTE,La Grange,NA,100,NA,NA,NA,NA,100,-96.6291794,32.1611314
Heb Pharmacy 418,200 Veterans Blvd,VAL VERDE,Del Rio,NA,100,NA,100,NA,NA,200,-96.6296591,32.1587557
Heb Pharmacy 419,2135 E Main,MAVERICK,Eagle Pass,NA,100,NA,100,NA,NA,200,-96.6309948,32.1566777
Heb Pharmacy 421,1211 Hwy 83e,HIDALGO,Alamo,NA,100,NA,NA,NA,NA,100,-96.6313496,32.1458369
Heb Pharmacy 423,1301 Wooded Acres Dr,MCLENNAN,Waco,NA,100,NA,NA,NA,NA,100,-96.6321635,32.13999
Heb Pharmacy 424,609 19th St,MEDINA,Hondo,NA,100,NA,100,NA,NA,200,-96.6322937,32.1332905
Heb Pharmacy 425,1000 E 41st Street,TRAVIS,Austin,NA,100,NA,NA,NA,NA,100,-96.6323307,32.1293156
Heb Pharmacy 426,800 N Hwy 77,ELLIS,Waxahachie,NA,100,NA,100,NA,NA,200,-96.6325333,32.1230777
Heb Pharmacy 427,735 Se Military Dr,BEXAR,San Antonio,NA,100,NA,NA,NA,NA,100,-96.6328754,32.0994541
Heb Pharmacy 428,6900 Brodie Ln,TRAVIS,Austin,NA,100,NA,NA,NA,NA,100,-96.6332489,32.0982598
HEB Pharmacy 431,2700 W Freddy Gonzalez Dr,HIDALGO,Edinburg,NA,100,NA,NA,NA,NA,100,-96.6333532,32.0908942
Heb Pharmacy 433,105 S Boundary St,BURNET,Burnet,NA,100,NA,NA,NA,NA,100,-96.6335828,32.0900793
Heb Pharmacy 434,101 Calhoun Plz,CALHOUN,Port Lavaca,NA,100,NA,NA,NA,NA,100,-96.6346681,32.0836254
Heb Pharmacy 441,227 E Main St,UVALDE,Uvalde,NA,100,NA,100,NA,NA,200,-96.635781,32.0355578
Heb Pharmacy 444,3323 Se Military Dr,BEXAR,San Antonio,NA,100,NA,NA,NA,NA,100,-96.6371294,32.0324433
Heb Pharmacy 445,403 S Colorado St,CALDWELL,Lockhart,NA,100,NA,100,NA,NA,200,-96.6376301,32.0186539
Heb Pharmacy 446,2155 Paredes Line Rd,CAMERON,Brownsville,NA,100,NA,NA,NA,NA,100,-96.6377617,32.0163653
HEB Pharmacy 448,2206 W Palma Vista,HIDALGO,Mission,NA,100,NA,NA,NA,NA,100,-96.6390783,32.0131078
Heb Pharmacy 449,7811 Mcpherson Rd,WEBB,Laredo,NA,100,NA,NA,NA,NA,100,-96.6406795,32.0091459
HEB Pharmacy 45,2400 S Congress Ave,TRAVIS,Austin,NA,100,NA,NA,NA,NA,100,-96.6413001,32.0046413
Heb Pharmacy 451,7301 North Fm 620,TRAVIS,Austin,NA,100,NA,NA,NA,NA,100,-96.642767,31.9972471
Heb Pharmacy 455,200 W Hopkins St,HAYS,San Marcos,NA,100,NA,NA,NA,NA,100,-96.6437272,31.9967021
Heb Pharmacy 462,3033 S Port Ave,NUECES,Corpus Christi,NA,100,NA,NA,NA,NA,100,-96.6445205,31.9967021
Heb Pharmacy 463,1150 N Fm 1604 W,BEXAR,San Antonio,NA,100,NA,NA,NA,NA,100,-96.6463958,31.9967021
HEB Pharmacy 465,2701 E 7th St,TRAVIS,Austin,NA,100,NA,NA,NA,NA,100,-96.6478708,31.9967021
Heb Pharmacy 466,108 N Rosillo St,BEXAR,San Antonio,NA,100,NA,NA,NA,NA,100,-96.6479624,31.9962237
Heb Pharmacy 467,701 E Milam St,LIMESTONE,Mexia,NA,100,NA,100,NA,NA,200,-96.6501152,31.9956585
Heb Pharmacy 473,6210 Fairmont Pkwy,HARRIS,Pasadena,NA,100,NA,NA,NA,NA,100,-96.6503051,31.9946748
Heb Pharmacy 474,4724 Highway 6,FORT BEND,Missouri City,NA,100,NA,NA,NA,NA,100,-96.6525788,31.9900828
HEB Pharmacy 475,1080 Highway 290 E,BASTROP,Elgin,NA,100,NA,100,NA,NA,200,-96.6551794,31.9663933
HEB Pharmacy 476,500 Canyon Ridge Dr,TRAVIS,Austin,NA,100,NA,NA,NA,NA,100,-96.6608469,31.9643526
HEB Pharmacy 477,15300 Ih 35 S,HAYS,Buda,NA,100,NA,NA,NA,NA,100,-96.6639791,31.9634328
HEB Pharmacy 479,201 Fm 685,TRAVIS,Pflugerville,NA,100,NA,NA,NA,NA,100,-96.665399,31.9602405
HEB Pharmacy 48,3015 North Dowlen Rd,JEFFERSON,Beaumont,NA,100,NA,NA,NA,NA,100,-96.6669025,31.9550228
HEB Pharmacy 480,9900 Wurzbach Rd,BEXAR,San Antonio,NA,100,NA,NA,NA,NA,100,-96.6687398,31.9492626
HEB Pharmacy 485,310 N Westgate Dr,HIDALGO,Weslaco,NA,100,NA,NA,NA,NA,100,-96.6752143,31.9384049
HEB Pharmacy 487,4500 Fm 2338,WILLIAMSON,Georgetown,NA,100,NA,NA,NA,NA,100,-96.6801643,31.9268932
HEB Pharmacy 488,1600 Wildcat Dr,SAN PATRICIO,Portland,NA,100,NA,100,NA,500,700,-96.6809966,31.9235874
HEB Pharmacy 489,2250 Boca Chica Blvd,CAMERON,Brownsville,NA,100,NA,NA,NA,NA,100,-96.6820232,31.9143769
HEB Pharmacy 492,1550 Fry Rd,HARRIS,Houston,NA,100,NA,NA,NA,NA,100,-96.6824261,31.9053405
HEB Pharmacy 494,10660 Culebra Rd,BEXAR,San Antonio,NA,100,NA,NA,NA,NA,100,-96.6824261,31.9048953
HEB Pharmacy 495,603 Louis Henna Blvd,WILLIAMSON,Round Rock,NA,100,NA,NA,NA,NA,100,-96.6824261,31.8971732
HEB Pharmacy 497,1621 S Mason Rd,HARRIS,Katy,NA,100,NA,NA,NA,NA,100,-96.6830258,31.8943318
HEB Pharmacy 498,7405 Fm 1960 E,HARRIS,Humble,NA,100,NA,NA,NA,NA,100,-96.683239,31.8935311
HEB Pharmacy 51,2000 S Gregg St,HOWARD,Big Spring,NA,100,NA,NA,NA,NA,100,-96.6834788,31.8932364
HEB Pharmacy 52,3301 Sherwood Way,TOM GREEN,San Angelo,NA,100,NA,NA,NA,NA,100,-96.6846968,31.8917579
HEB Pharmacy 54,9828 Blackhawk Blvd,HARRIS,Houston,NA,100,NA,NA,NA,NA,100,-96.6889791,31.8914339
