"Provider_Name","Address","County","City","Doses_W1","Doses_W2","Doses_W3","Doses_W4","Doses_W5","Sum","lon","lat","geoAddress"
"Baptist Medical Center","111 Dallas Street","BEXAR","San Antonio",975,975,NA,NA,NA,1950,-98.4927788,29.4337636,""
"Methodist Metropolitan Hospital",NA,"BEXAR","San Antonio",975,NA,NA,NA,NA,975,-98.4908561,29.4411887,""
"North Central Baptist Hospital",NA,"BEXAR","San Antonio",975,NA,NA,NA,NA,975,-98.4912421,29.6200853,""
"Northeast Baptist Hospital",NA,"BEXAR","San Antonio",975,NA,NA,NA,NA,975,-98.4287811,29.5195482,""
"San Antonio State Hospital",NA,"BEXAR","San Antonio",975,NA,NA,NA,NA,975,-98.4493751,29.3578774,""
"St Lukes Baptist Hospital",NA,"BEXAR","San Antonio",975,NA,NA,NA,NA,975,-98.5750851,29.5124948,""
"Christus St Michael Health System",NA,"BOWIE","Texarkana",975,NA,NA,NA,NA,975,-94.0754547,33.4638683,""
"Wadley Regional Medical Center",NA,"BOWIE","Texarkana",975,NA,NA,NA,NA,975,-94.046913,33.42893,""
"Baylor Scott & White Medical Center - College Station",NA,"BRAZOS","College Station",975,NA,NA,NA,NA,975,-96.6824261,33.2211103,""
"Medical City McKinney",NA,"COLLIN","McKinney",975,NA,NA,NA,NA,975,-96.6376301,33.1596498,""
"North Texas Infectious Diseases Consultants - Nc Expy",NA,"DALLAS","Dallas",975,NA,NA,NA,NA,975,-96.7712424,32.8752157,""
"Texas Scottish Rite Hospital For Children",NA,"DALLAS","Dallas",975,NA,NA,NA,NA,975,-96.8141252,32.8021236,""
"Baylor Scott And White Medical Center - Irving",NA,"DALLAS","Irving",975,NA,NA,NA,NA,975,-96.961023,32.8350489,""
"Del Sol Campus Of Lpds",NA,"EL PASO","El Paso",975,NA,NA,NA,NA,975,-106.3504887,31.7568394,""
"Las Palmas Medical Center",NA,"EL PASO","El Paso",975,NA,NA,NA,NA,975,-106.4984909,31.7698905,""
"The Hospitals of Providence East Campus",NA,"EL PASO","El Paso",975,NA,NA,NA,NA,975,-106.264978,31.7904346,""
"The Hospitals of Providence Memorial Campus",NA,"EL PASO","El Paso",975,NA,NA,NA,NA,975,-106.5004496,31.7707539,""
"CHRISTUS Good Shepherd Medical Center Longview","700 E Marshall Ave","GREGG","Longview",975,975,600,NA,NA,2550,-94.7304434,32.5008276,""
"Longview Medical Center, L.P.",NA,"GREGG","Longview",975,NA,NA,NA,NA,975,-94.729937,32.5335926,""
"Memorial Hermann Cypress Hospital",NA,"HARRIS","Cypress",975,NA,NA,NA,NA,975,-95.7330368,29.9869921,""
"Houston Methodist Willowbrook Hospital","18220 State Highway 249","HARRIS","Houston",975,1000,200,NA,NA,2175,-95.5507484,29.9668822,""
"Houston Methodist West Hospital","18500 Katy Fwy","HARRIS","Houston",975,800,200,NA,NA,1975,-95.6978542,29.7873521,""
"Houston Methodist Clear Lake Hospital",NA,"HARRIS","Houston",975,NA,NA,NA,NA,975,-95.0862056,29.5495514,""
"St Lukes Hospital At The Vintage",NA,"HARRIS","Houston",975,NA,NA,NA,NA,975,-95.5674988,29.9891215,""
"Texas Children's Hospital West Campus",NA,"HARRIS","Houston",975,NA,NA,NA,NA,975,-95.6915806,29.7871593,""
"Memorial Hermann Katy Hospital",NA,"HARRIS","Katy",975,NA,NA,NA,NA,975,-95.7863342,29.7874335,""
"HCA Houston Healthcare Southeast",NA,"HARRIS","Pasadena",975,NA,NA,NA,NA,975,-95.1837808,29.6612444,""
"University Of Texas Medical Branch - Clear Lake",NA,"HARRIS","Webster",975,NA,NA,NA,NA,975,-94.773173,29.312325,""
"Seton Medical Center Hays",NA,"HAYS","Kyle",975,NA,NA,NA,NA,975,-97.8529453,30.0084463,""
"South Texas Health System Mcallen","301 W Expressway 83","HIDALGO","McAllen",975,975,NA,NA,200,2150,-98.225912,26.18677,""
"Rio Grande Regional Hospital",NA,"HIDALGO","McAllen",975,NA,NA,NA,NA,975,-98.2209321,26.1866254,""
"Hunt Regional Medical Center",NA,"HUNT","Greenville",975,NA,NA,NA,NA,975,-96.124325,33.122106,""
"Baptist Hospitals of Southeast Texas","3080 College St","JEFFERSON","Beaumont",975,975,100,NA,NA,2050,-94.1197861,30.0707723,""
"Christus Health St Elizabeth Hospital",NA,"JEFFERSON","Beaumont",975,NA,NA,NA,NA,975,-94.1319032,30.0867479,""
"The Medical Center Of Southeast Texas",NA,"JEFFERSON","Port Arthur",975,NA,NA,NA,NA,975,-93.9887342,29.935447,""
"Terrell State Hospital",NA,"KAUFMAN","Terrell",975,NA,NA,NA,NA,975,-96.2641749,32.7414984,""
"Baylor Scott White Med Ctr Hillcrest",NA,"MCLENNAN","Waco",975,NA,NA,NA,NA,975,-97.1576467,31.4890708,""
"Providence Health - Providence Health Center",NA,"MCLENNAN","Waco",975,NA,NA,NA,NA,975,-97.1985701,31.5139008,""
"Houston Methodist The Woodlands Hsptl","17201 Interstate 45 S","MONTGOMERY","Conroe",975,900,100,NA,300,2275,-95.4537015,30.2053548,""
"Texas Children's Hospital Woodlands",NA,"MONTGOMERY","Conroe",975,NA,NA,NA,NA,975,-95.4574926,30.2013453,""
"Kingwood Medical Center",NA,"MONTGOMERY","Kingwood",975,NA,NA,NA,NA,975,-95.2548122,30.0500672,""
"Corpus Christi Medical Center",NA,"NUECES","Corpus Christi",975,NA,NA,NA,NA,975,-97.3448419,27.6929689,""
"Northwest Texas Hospital Pharmacy","1501 S Coulter St","POTTER","Amarillo",975,975,600,NA,NA,2550,-101.9201874,35.1997117,""
"Texas Tech Health Science Center - Amarillo",NA,"POTTER","Amarillo",975,NA,NA,NA,NA,975,-101.9232448,35.2007889,""
"Christus Mother Frances Hospital - Tyler","800 E Dawson","SMITH","Tyler",975,975,5500,100,NA,7550,-95.2908131,32.3429531,""
"Medical City Arlington",NA,"TARRANT","Arlington",975,NA,NA,NA,NA,975,-97.112769,32.6925288,""
"Texas Health Huguley Hospital - Fort Worth South",NA,"TARRANT","Burleson",975,NA,NA,NA,NA,975,-97.3168809,32.5866401,""
"Baylor Scott And White All Saints Medical Center - Fort Worth",NA,"TARRANT","Fort Worth",975,NA,NA,NA,NA,975,-97.345412,32.7296877,""
"Baylor Scott & White Hospital - Grapevine",NA,"TARRANT","Grapevine",975,NA,NA,NA,NA,975,-96.6824261,33.2211103,""
"South Austin Medical Center","901 W Ben White Blvd","TRAVIS","Austin",975,975,NA,500,100,2550,-97.7745674,30.2261149,""
"Austin State Hospital",NA,"TRAVIS","Austin",975,NA,NA,NA,NA,975,-97.7355015,30.3083408,""
"North Austin Medical Center",NA,"TRAVIS","Austin",975,NA,NA,NA,NA,975,-97.7062822,30.4114435,""
"St Davids Medical Center",NA,"TRAVIS","Austin",975,NA,NA,NA,NA,975,-97.7256611,30.2894853,""
"Citizens Medical Center - Victoria 1",NA,"VICTORIA","Victoria",975,NA,NA,NA,NA,975,-96.9774396,28.8127386,""
"Laredo Medical Center","1700 East Saunders","WEBB","Laredo",975,975,NA,NA,NA,1950,-99.4779827,27.5325136,""
"North Texas State Hospital",NA,"WICHITA","Wichita Falls",975,NA,NA,NA,NA,975,-98.5266171,33.8418279,""
"United Regional Health Care System",NA,"WICHITA","Wichita Falls",975,NA,NA,NA,NA,975,-98.5011331,33.9026335,""
"Baylor Scott White Health MC Round Rock",NA,"WILLIAMSON","Round Rock",975,NA,NA,NA,NA,975,-97.6850782,30.5630963,""
"Round Rock Medical Center",NA,"WILLIAMSON","Round Rock",975,NA,NA,NA,NA,975,-97.7140136,30.5104904,""
"Wise Health System",NA,"WISE","Decatur",975,NA,NA,NA,NA,975,-97.5944801,33.2171081,""
"Methodist Hospital & Methodist Children's Hospital","7700 Floyd Curl Drive","BEXAR","San Antonio",1950,975,4775,NA,NA,7700,-98.5722733,29.5080538,""
"Medical City Dallas Hospital",NA,"DALLAS","Dallas",1950,NA,NA,NA,NA,1950,-96.7744115,32.9126714,""
"Christus Health Clinic- Irving",NA,"DALLAS","Irving",1950,NA,NA,NA,NA,1950,-96.9604171,32.8779778,""
"Houston Methodist Sugar Land Hospital","16655 Southwest Freeway","FORT BEND","Sugar Land",1950,400,100,NA,NA,2450,-95.6311215,29.5890748,""
"Texoma Medical Center- Hospital Patients","5016 S Us Highway 75","GRAYSON","Denison",1950,975,3625,NA,NA,6550,-96.5854456,33.7101281,""
"Houston Methodist Baytown Hospital","4401 Garth Rd","HARRIS","Baytown",1950,975,2050,NA,NA,4975,-94.9796029,29.7691568,""
"Ben Taub General Hospital","1504 Taub Loop","HARRIS","Houston",1950,975,2075,1950,300,7250,-95.3947226,29.7110546,""
"HCA Houston Healthcare Northwest",NA,"HARRIS","Houston",1950,NA,NA,NA,NA,1950,-95.4426393,30.0205658,""
"LBJ Hospital - Harris County Hospital District",NA,"HARRIS","Houston",1950,NA,NA,NA,NA,1950,-95.313338,29.811306,""
"Memorial Hermann Greater Heights",NA,"HARRIS","Houston",1950,NA,NA,NA,NA,1950,-95.4312004,29.8109366,""
"Memorial Hermann SE Hospital",NA,"HARRIS","Houston",1950,NA,NA,NA,NA,1950,-95.2069892,29.583339,""
"UT Health RGV Edinburg",NA,"HIDALGO","Edinburg",1950,NA,NA,NA,NA,1950,-98.191719,26.2689552,""
"Mission Regional Medical Center",NA,"HIDALGO","Mission",1950,NA,NA,NA,NA,1950,-98.3141909,26.1956973,""
"UNIVERSITY MEDICAL CENTER LUBBOCK",NA,"LUBBOCK","Lubbock",1950,NA,NA,NA,NA,1950,-101.8912605,33.5880569,""
"Midland Memorial Hospital",NA,"MIDLAND","Midland",1950,NA,NA,NA,NA,1950,-102.1002384,31.9969221,""
"Memorial Hermann The Woodlands Hospital",NA,"MONTGOMERY","Spring",1950,NA,NA,NA,NA,1950,-95.4540863,30.1743588,""
"Cook Childrens Occupational Health Services",NA,"TARRANT","Fort Worth",1950,NA,NA,NA,NA,1950,-97.3410601,32.7350565,""
"JPS Main",NA,"TARRANT","Fort Worth",1950,NA,NA,NA,NA,1950,-97.3263104,32.727173,""
"Shannon Pharmacy","119 E. Beauregard Ave","TOM GREEN","San Angelo",1950,975,2600,NA,NA,5525,-100.4339709,31.4631464,""
"Dell Childrens Medical Center Of Central Texas",NA,"TRAVIS","Austin",1950,NA,NA,NA,NA,1950,-97.7073463,30.3034562,""
"Dell Seton Medical Center At University Of Texas",NA,"TRAVIS","Austin",1950,NA,NA,NA,NA,1950,-97.7340371,30.2765877,""
"STAT Specialty Hospital",NA,"WEBB","Laredo",1950,NA,NA,NA,NA,1950,-99.469617,27.6134532,""
"Valley Baptist Medical Center",NA,"CAMERON","Harlingen",2925,NA,NA,NA,NA,2925,-97.6711333,26.1742502,""
"Medical City Plano",NA,"COLLIN","Plano",2925,NA,NA,NA,NA,2925,-96.7671605,33.0203573,""
"Baylor University Med Cntr Dallas",NA,"DALLAS","Dallas",2925,NA,NA,NA,NA,2925,-96.7819106,32.7914389,""
"University Medical Center of El Paso","4815 Alameda Ave","EL PASO","El Paso",2925,1950,NA,1950,5000,11825,-106.4344878,31.7714531,""
"University Of Texas Medical Branch Hospital","301 University Blvd","GALVESTON","Galveston",2925,1950,2750,NA,NA,7625,-94.7731229,29.3121155,""
"Memorial Hermann Memorial City Medical Center",NA,"HARRIS","Houston",2925,NA,NA,NA,NA,2925,-95.546905,29.781313,""
"Covenant Medical Center","3615 19th St","LUBBOCK","Lubbock",2925,975,700,NA,NA,4600,-101.8925584,33.5771065,""
"Hendrick Medical Center",NA,"TAYLOR","Abilene",2925,NA,NA,NA,NA,2925,-99.7325631,32.4718235,""
"Seton Medical Center Austin",NA,"TRAVIS","Austin",2925,NA,NA,NA,NA,2925,-97.7463934,30.3051893,""
"UT Health Austin (Dell Medical School)",NA,"TRAVIS","Austin",2925,NA,NA,NA,NA,2925,-97.7335293,30.2755307,""
"BaylorScottandWhiteMedicalCenter-Temple","2401 S 31st Street","BELL","Temple",3900,975,500,NA,NA,5375,-97.3639792,31.0776472,""
"Christus Santa Rosa Medical Center","2827 Babcock Rd","BEXAR","San Antonio",3900,975,3625,975,NA,9475,-98.5900455,29.5131098,""
"Texas Children's Hospital Main",NA,"HARRIS","Houston",3900,NA,NA,NA,NA,3900,-95.4016738,29.7080052,""
"UT Health Science Center Tyler",NA,"SMITH","Tyler",3900,NA,NA,NA,NA,3900,-95.2134455,32.4257364,""
"Christus Santa Rosa Hospital - Westover Hills",NA,"BEXAR","San Antonio",4875,NA,NA,NA,NA,4875,-98.6965548,29.4661305,""
"UT MD Anderson Cancer Center","1515 Holcombe Blvd","HARRIS","Houston",4875,975,4850,NA,NA,10700,-95.3969819,29.707177,""
"Christus Spohn Health System Shoreline",NA,"NUECES","Corpus Christi",4875,NA,NA,NA,NA,4875,-97.3957132,27.7769909,""
"Cook Children's Medical Center",NA,"TARRANT","Fort Worth",4875,NA,NA,NA,NA,4875,-97.3414744,32.7366137,""
"University Health System - Inpatient","4502 Medical Dr","BEXAR","San Antonio",5850,975,7450,975,NA,15250,-98.5774288,29.5078141,""
"Wellness 360 (UTHealth San Antonio)",NA,"BEXAR","San Antonio",5850,NA,NA,NA,NA,5850,-98.5760695,29.5039936,""
"Methodist Dallas Medical Center","1441 N Beckley Ave","DALLAS","Dallas",5850,1950,NA,NA,NA,7800,-96.8253224,32.7596673,""
"Parkland Hospital","5200 Harry Hines Blvd","DALLAS","Dallas",5850,1950,7675,NA,6825,22300,-96.8356763,32.8128222,""
"UT Southwestern Medical Center","5323 Harry Hines Blvd","DALLAS","Dallas",5850,975,7950,1700,10000,26475,-96.8402121,32.8138026,""
"Memorial Hermann Texas Medical Center","6411 Fannin St","HARRIS","Houston",5850,975,5100,NA,NA,11925,-95.3965469,29.7141998,""
"Houston Methodist Hospital","6565 Fannin St","HARRIS","Houston",5850,2925,7950,8875,10725,36325,-95.3997225,29.7099079,""
"Chi St Lukes Health",NA,"HARRIS","Houston",5850,NA,NA,NA,NA,5850,-95.4006224,29.7077057,""
"Doctors Hospital at Renaissance","5501 South McColl Road","HIDALGO","Edinburg",5850,3000,800,NA,6500,16150,-98.2053376,26.2526609,""
"Texas Health Harris Methodist Hospital Fort Worth",NA,"TARRANT","Fort Worth",5850,NA,NA,NA,NA,5850,-97.3393937,32.736806,""
"Texas Department of Criminal Justice Gurney","1385 FM 3328","ANDERSON","Palestine",NA,NA,NA,100,NA,100,-95.825213,31.7589785,""
"Texas Department of Criminal Justice Powledge","1400 FM 3452","ANDERSON","Palestine",NA,NA,NA,100,NA,100,-95.8070752,31.7325074,""
"Brookshires Pharmacy 030","2107 S Loop 256","ANDERSON","Palestine",NA,100,NA,NA,NA,100,-95.6108893,31.7368514,""
"Palestine Regional Medical Center","2900 S Loop 256","ANDERSON","Palestine",NA,300,NA,NA,NA,300,-95.6271991,31.7325094,""
"Christus Trinity Clinic Magnolia Medical Plaza","3201 South Loop 256","ANDERSON","Palestine",NA,1400,NA,500,NA,1900,-95.6311732,31.7369347,""
"Kroger Pharmacy 431","325 E Spring St","ANDERSON","Palestine",NA,NA,NA,100,NA,100,-95.6277236,31.7624687,""
"Texas Department of Criminal Justice BETO","1391 FM 3328","ANDERSON","Tennessee Colony",NA,NA,NA,100,NA,100,-95.8231687,31.7547889,""
"Texas Department of Criminal Justice COFFIELD","2661 FM 2054","ANDERSON","Tennessee Colony",NA,NA,NA,100,NA,100,-95.8765487,31.8107274,""
"Texas Department of Criminal Justice Michael","2664 FM 2054","ANDERSON","Tennessee Colony",NA,NA,NA,100,NA,100,-95.8765631,31.8107523,""
"Lhd Andrews City-County Health Department (Re)","208 Nw 2nd St","ANDREWS","Andrews",NA,100,NA,NA,NA,100,-102.5492991,32.3200101,""
"PERMIAN REGIONAL MEDICAL CENTER","720 Hospital Dr","ANDREWS","Andrews",NA,400,100,NA,NA,500,-102.5472807,32.337978,""
"Texas Department of Criminal Justice DUNCAN","1502 S. First Street","ANGELINA","Diboll",NA,NA,NA,100,NA,100,-94.7956912,31.1725172,""
"Texas Department of Criminal Justice DIBOLL","1604 First Street","ANGELINA","Diboll",NA,NA,NA,100,NA,100,-94.806049,31.173455,""
"Brookshires Pharmacy 35 - Diboll","223 1/2 Temple Dr","ANGELINA","Diboll",NA,400,NA,NA,NA,400,-94.7743823,31.2036197,""
"Brookshires Pharmacy 52 - Huntington","104 N Main St","ANGELINA","Huntington",NA,400,NA,NA,NA,400,-94.5760192,31.2781085,""
"Chi St Lukes Hlth Memorial Lufkin","1201 W Frank Ave","ANGELINA","Lufkin",NA,600,400,NA,100,1100,-94.7421221,31.3363231,""
"Lufkin Community Clinic-Lakeview","1316 Lakeview St","ANGELINA","Lufkin",NA,NA,NA,100,NA,100,-94.7302811,31.3554817,""
"Brookshires Pharmacy 25","1807 West Frank","ANGELINA","Lufkin",NA,400,NA,NA,NA,400,-94.7544567,31.3332967,""
"Lufkin Adult Medicine Clinic","202 S Bynum St","ANGELINA","Lufkin",NA,NA,NA,100,NA,100,-94.7387886,31.3354125,""
"Brookshires Pharmacy 1","301 S Chestnut St","ANGELINA","Lufkin",NA,500,NA,NA,NA,500,-94.7170021,31.3341177,""
"Lhd Angelina County And Cities Health District (Re)","503 Hill St Ste 100","ANGELINA","Lufkin",NA,NA,NA,100,NA,100,-94.7482092,31.3379627,""
"Woodland Heights Medical Center","505 S John Redditt Dr","ANGELINA","Lufkin",NA,500,NA,NA,NA,500,-94.7541222,31.3287296,""
"Urgent Health Solutions","525 N Brentwood","ANGELINA","Lufkin",NA,900,NA,100,NA,1000,-94.7295537,31.3028032,""
"The Medicine Shoppe Pharmacy 0939","903 W Frank Ave","ANGELINA","Lufkin",NA,200,NA,NA,NA,200,-94.7384854,31.3382542,""
"Texas Dads State Supportive Living Center Lufkin","6844 U.S. 69","ANGELINA","Pollok",NA,1100,NA,100,NA,1200,-94.8045927,31.4213562,""
"Walgreens Pharmacy 10680","2702 W Wheeler Ave","ARANSAS","Aransas Pass",NA,NA,NA,100,NA,100,-97.1769179,27.9256079,""
"Walgreens Pharmacy 09205","1309 Highway 35 N","ARANSAS","Rockport",NA,NA,NA,100,NA,100,-97.0431649,28.0372767,""
"Heb Pharmacy 562","1409 Highway 35 N","ARANSAS","Rockport",NA,100,NA,100,NA,200,-97.0810731,28.0336352,""
"DSHS Archer City","511 S. Cedar","ARCHER","Archer City",NA,NA,NA,100,NA,100,-98.6226624,33.5897939,""
"Eagle Pharmacy","700 S. College Ave","ARCHER","Holliday",NA,100,NA,NA,NA,100,-98.6899623,33.809133,""
"Claude Family Medical Clinic","201 Parks St","ARMSTRONG","Claude",NA,100,NA,NA,NA,100,-101.3608035,35.1094532,""
"Methodist Hospital South","1905 Hwy 97 E","ATASCOSA","Jourdanton",NA,NA,NA,NA,300,300,-98.5260352,28.9331124,""
"HEB Pharmacy 19","19337 Mcdonald St","ATASCOSA","Lytle",NA,100,NA,NA,NA,100,-98.7903024,29.2311367,""
"QUC PLEASANTON LLC","2106 W OAKLAWN RD","ATASCOSA","Pleasanton",NA,500,NA,NA,NA,500,-98.5133844,28.9405024,""
"HEB Pharmacy 411","219 W Oaklawn Rd","ATASCOSA","Pleasanton",NA,100,NA,NA,NA,100,-98.4865617,28.9559917,""
"Kings Medicine","809 N Bryant St","ATASCOSA","Pleasanton",NA,500,NA,NA,NA,500,-98.4926072,28.9667591,""
"Bellville Medical Center","44 N. Cummings St.","AUSTIN","Bellville",NA,NA,NA,100,100,200,-96.2601684,29.9531252,""
"Brookshires Pharmacy 39 - Bellville","720 S Front St","AUSTIN","Bellville",NA,500,NA,NA,NA,500,-96.251949,29.9395218,""
"Medical Clinics Of Sealy","1036 N Circle Dr","AUSTIN","Sealy",NA,NA,NA,100,NA,100,-96.1580396,29.7722488,""
"United Pharmacy 550","104 W 9th St","BAILEY","Muleshoe",NA,NA,NA,100,NA,100,-102.7335331,34.2314614,""
"K&K Pharmacy","1411 W American Blvd","BAILEY","Muleshoe",NA,100,NA,NA,NA,100,-102.7386819,34.2339696,""
"Medical Clinic Of Muleshoe","708 S 1st St","BAILEY","Muleshoe",NA,100,NA,NA,NA,100,-102.7285134,34.2213093,""
"Medina Lake Clinic","146 Laurel Vista Dr","BANDERA","Pipe Creek",NA,100,NA,NA,NA,100,-98.9293547,29.6081873,""
"HEB Pharmacy 582","104 Hasler St","BASTROP","Bastrop",NA,100,NA,100,NA,200,-97.3251385,30.1032957,""
"DSHS Bastrop","104 Loop 150 W","BASTROP","Bastrop",NA,100,100,NA,NA,200,-97.3284288,30.1077787,""
"Communitycare- Ob/Gyn Bastrop","301 Highway 71 W Ste 111","BASTROP","Bastrop",NA,NA,100,NA,NA,100,-97.3299211,30.1064656,""
"Family Health Center Of Bastrop","3101 Highway 71 E Ste 101","BASTROP","Bastrop",NA,NA,NA,NA,100,100,-97.2929987,30.1035817,""
"Walgreens Pharmacy 13588","4201 Highway 71 E","BASTROP","Bastrop",NA,NA,NA,100,NA,100,-97.2840855,30.1014282,""
"Walgreens Pharmacy 09143","504 Highway 71 W","BASTROP","Bastrop",NA,NA,NA,100,NA,100,-97.3360437,30.1066131,""
"A+ Life Style Medical Group","815 Hwy 71 W","BASTROP","Bastrop",NA,NA,NA,NA,100,100,-97.3785263,30.1100401,""
"HEB Pharmacy 475","1080 Highway 290 E","BASTROP","Elgin",NA,100,NA,100,NA,200,-97.3605967,30.3349598,""
"Seton Smithville Regional Hospital","1201 Hill Rd","BASTROP","Smithville",NA,100,NA,NA,NA,100,-97.1360218,30.0039505,""
"Seymour Hospital","200 Stadium Dr","BAYLOR","Seymour",NA,NA,NA,200,NA,200,-99.2474171,33.592158,""
"Seymour Hospital Rural Health Clinic","201 Stadium Dr","BAYLOR","Seymour",NA,200,NA,NA,NA,200,-99.2486828,33.5897145,""
"Heb Pharmacy 412","100 E Houston St","BEE","Beeville",NA,100,NA,100,NA,200,-97.7462537,28.4005228,""
"Careville Pediatrics, Pa","1003 N Saint Marys St","BEE","Beeville",NA,NA,NA,100,NA,100,-97.7534796,28.4096922,""
"South Tx Family Plannng And Health Corp - Beeville","1400 W Corpus Christi St Ste 4","BEE","Beeville",NA,100,NA,200,NA,300,-97.7620521,28.3961978,""
"Christus Spohn Health System Beeville","1500 E Houston St","BEE","Beeville",NA,200,NA,NA,NA,200,-97.730742,28.406177,""
"Walgreens Pharmacy 10689","300 E Houston St","BEE","Beeville",NA,NA,NA,100,NA,100,-97.7448532,28.4019178,""
"Texas Department of Criminal Justice McConnell","3001 S. Emily Dr.","BEE","Beeville",NA,NA,NA,100,NA,100,-97.7278601,28.3802068,""
"Texas Department of Criminal Justice GARZA","4250 Hwy 202","BEE","Beeville",NA,NA,NA,100,NA,100,-97.666256,28.376473,""
"HEB Pharmacy 39","2509 N Main","BELL","Belton",NA,100,NA,NA,NA,100,-97.4545871,31.0804773,""
"Freedom Urgent Care","300 W Central Texas Exwpy Ste 115","BELL","Harker Heights",NA,100,NA,NA,NA,100,-97.6756253,31.0711687,""
"Heb Pharmacy 381","601 Indian Trl","BELL","Harker Heights",NA,100,NA,NA,NA,100,-97.6541223,31.0787083,""
"Seton Medical Center Harker Heights","850 West Central Texas Expresswy","BELL","Harker Heights",NA,600,NA,NA,100,700,-97.6831302,31.0729022,""
"HEB Pharmacy 721","1101 W. Stan Schlueter Lp","BELL","Killeen",NA,100,NA,NA,NA,100,-97.7592818,31.079383,""
"Metroplex Health System","2201 S. Clear Creek Dr","BELL","Killeen",NA,1400,NA,NA,NA,1400,-97.8011834,31.1133483,""
"HEB Pharmacy 581","2511 Trimmier Rd","BELL","Killeen",NA,100,NA,NA,NA,100,-97.7358989,31.0916384,""
"Brookshires Pharmacy 69 - Salado","215 Mill Creek Dr","BELL","Salado",NA,500,NA,NA,NA,500,-97.5300551,30.9560776,""
"HEB Pharmacy 71","1314 W Adams","BELL","Temple",NA,100,NA,NA,NA,100,-97.3535779,31.1021023,""
"BAYLOR SCOTT AND WHITE HQ","2401 S 31st Street","BELL","Temple",NA,NA,NA,1950,NA,1950,-97.3639792,31.0776472,""
"HEB Pharmacy 182","3002 S 31st St","BELL","Temple",NA,100,NA,NA,NA,100,-97.3709011,31.0721168,""
"Bell County Public Health District","509 S 9th St Temple","BELL","Temple",NA,NA,NA,NA,3900,3900,-97.3477313,31.092511,""
"Premier ER Temple","7010 West Adams Ave","BELL","Temple",NA,100,NA,NA,NA,100,-97.416632,31.1182098,""
"University Of Texas Medicine Hill Country","25723 Old Federicksberg Rd","BEXAR","Boerne",NA,500,NA,NA,NA,500,-98.6381457,29.6839832,""
"Kyle Communicare Health Center","2810 Dacy Ln","BEXAR","Kyle",NA,NA,NA,500,NA,500,-97.8399401,30.0146961,""
"HEB Pharmacy 106","1015 S Ww White Rd","BEXAR","San Antonio",NA,100,NA,NA,NA,100,-98.4064294,29.4151743,""
"UT Health San Antonio Verde Hills PCC","10350 Bandera Rd Ste 140","BEXAR","San Antonio",NA,200,NA,NA,NA,200,-98.6506482,29.5396086,""
"Uhs Southeast","1055 Ada St","BEXAR","San Antonio",NA,2500,NA,NA,NA,2500,-98.4570699,29.3814435,""
"HEB Pharmacy 494","10660 Culebra Rd","BEXAR","San Antonio",NA,100,NA,NA,NA,100,-98.703031,29.491418,""
"HEB Pharmacy 85","10718 Potranco","BEXAR","San Antonio",NA,100,NA,NA,NA,100,-98.7042159,29.4337227,""
"Heb Pharmacy 466","108 N Rosillo St","BEXAR","San Antonio",NA,100,NA,NA,NA,100,-98.5240445,29.4283807,""
"Communicare Health Centers West","1102 Barclay St","BEXAR","San Antonio",NA,NA,NA,NA,100,100,-98.5421474,29.4098545,""
"Kindred Hosptial San Antonio Central","111 DALLAS STREET","BEXAR","San Antonio",NA,NA,NA,NA,100,100,-98.4927788,29.4337636,""
"Christus Santa Rosa Family Health Center - San Antonio 1","11130 Christus Hills","BEXAR","San Antonio",NA,200,NA,NA,NA,200,-98.6972818,29.4647521,""
"Westover Hills Family Health","11212 State Highway 151 Plaza 1","BEXAR","San Antonio",NA,500,NA,NA,NA,500,-98.6969456,29.4668422,""
"15RX Pharmacy-2","11212 State Hwy 151, Plaza-2","BEXAR","San Antonio",NA,NA,NA,100,NA,100,-98.6969457,29.4668423,""
"Methodist Stone Oak Hospital","1139 E. Sonterra Blvd.","BEXAR","San Antonio",NA,600,1400,NA,300,2300,-98.4743864,29.6162229,""
"Heb Pharmacy 463","1150 N Fm 1604 W","BEXAR","San Antonio",NA,100,NA,NA,NA,100,-98.5106377,29.6066696,""
"HEB Pharmacy 195","11551 West Ave","BEXAR","San Antonio",NA,100,NA,NA,NA,100,-98.5108617,29.5470128,""
"ASPG dba CHRISTUS Promptu Urgent Care","11823 Culebra Rd","BEXAR","San Antonio",NA,1000,NA,NA,NA,1000,-98.7259083,29.5027806,""
"Caritas Family Medicine PA","11901 Toepperwein Rd","BEXAR","San Antonio",NA,100,NA,NA,NA,100,-98.3428988,29.5464257,""
"Uhs Southwest School Based Clinic","11914 Dragon Ln","BEXAR","San Antonio",NA,NA,NA,100,NA,100,-98.669685,29.3086091,""
"HEB Pharmacy 568","12018 Perrin Beitel Rd","BEXAR","San Antonio",NA,100,NA,NA,NA,100,-98.407223,29.5489659,""
"HEB Pharmacy 733","12125 Alamo Ranch Pkwy","BEXAR","San Antonio",NA,100,NA,NA,NA,100,-98.7315841,29.4857602,""
"Northeast Methodist Hospital","12412 Judson Rd","BEXAR","San Antonio",NA,1000,400,NA,NA,1400,-98.3479862,29.5525384,""
"Heb Pharmacy 395","12777 W Interstate 10","BEXAR","San Antonio",NA,100,NA,NA,NA,100,-98.5880706,29.5620641,""
"Methodist Metropolitan Hospital","1310 McCullough Ave","BEXAR","San Antonio",NA,NA,1100,NA,300,1400,-98.4910208,29.4408508,""
"Texas MedClinic","13722 Embassy Row","BEXAR","San Antonio",NA,NA,NA,100,NA,100,-98.4855327,29.5642638,""
"Heb Pharmacy 230","14087 Oconnor Rd","BEXAR","San Antonio",NA,100,NA,NA,NA,100,-98.3868165,29.5696482,""
"Gruesbeck Medical Clinic Cable Ranch Rd","1415 Cable Ranch Rd","BEXAR","San Antonio",NA,NA,NA,100,NA,100,-98.6582537,29.4208806,""
"Davila Pharmacy","1423 Guadalupe","BEXAR","San Antonio",NA,200,NA,NA,200,400,-98.5164511,29.4188386,""
"HEB Pharmacy 771","14325 Potranco Rd","BEXAR","San Antonio",NA,100,NA,NA,NA,100,-98.7778313,29.421426,""
"Ut Health Shavano Park Pcc","14530 Nw Military Hwy # 108","BEXAR","San Antonio",NA,700,NA,NA,NA,700,NA,NA,""
"HEB Pharmacy 164","15000 San Pedro Ave","BEXAR","San Antonio",NA,100,NA,NA,NA,100,-98.476444,29.5777934,""
"HEB Pharmacy 585","1520 Austin Hwy","BEXAR","San Antonio",NA,100,NA,NA,NA,100,-98.4317882,29.4934859,""
"ShurMed Emergency Medical Service LLC","1535 Brady Blvd","BEXAR","San Antonio",NA,2100,NA,NA,NA,2100,-98.5542017,29.4057858,""
"Walgreens Pharmacy 15461","1560 Bandera Rd","BEXAR","San Antonio",NA,NA,NA,100,NA,100,-98.5691179,29.4695934,""
"HEB Pharmacy 699","1601 Nogalitos St","BEXAR","San Antonio",NA,100,NA,NA,NA,100,-98.5148641,29.3977426,""
"HEB Pharmacy 732","17238 Bulverde Rd","BEXAR","San Antonio",NA,100,NA,NA,NA,100,-98.4175208,29.5950765,""
"Magenta Health","17238 Bulverde Road","BEXAR","San Antonio",NA,NA,NA,100,NA,100,-98.4175208,29.5950765,""
"Heb Pharmacy 397","18140 San Pedro Ave","BEXAR","San Antonio",NA,100,NA,NA,NA,100,-98.4669278,29.6069018,""
"South Texas Spine And Surgical Hospital","18600 Hardy Oak Blvd","BEXAR","San Antonio",NA,NA,NA,NA,100,100,-98.4773014,29.6133396,""
"Northeast Pediatric Assoc","18707 Hardy Oak Blvd Ste 225","BEXAR","San Antonio",NA,NA,NA,100,NA,100,-98.4783851,29.6163151,""
"Quality Urgent Care Of America","19422 Us Highway 281 N Ste 106","BEXAR","San Antonio",NA,1000,NA,NA,NA,1000,-98.4624286,29.622928,""
"Heb Pharmacy 372","1955 Nacogdoches Rd","BEXAR","San Antonio",NA,100,NA,NA,NA,100,-98.45827,29.5075448,""
"The Emergency Clinic at the Pearl","2015 Broadway St.","BEXAR","San Antonio",NA,NA,NA,100,100,200,-98.476302,29.4449734,""
"HEB Pharmacy 108","20935 Us Hwy 281 N","BEXAR","San Antonio",NA,100,NA,NA,NA,100,-98.4501323,29.6484147,""
"Samhd Iz Outreach","210 N Mel Waiters Way","BEXAR","San Antonio",NA,NA,100,NA,NA,100,-98.446994,29.4207449,""
"Samhd Main Immunizations Clinic","210 N Mel Waiters Way","BEXAR","San Antonio",NA,1100,NA,NA,NA,1100,-98.446994,29.4207449,""
"San Antonio Metro Health District","210 N Mel Waiters Way","BEXAR","San Antonio",NA,NA,NA,NA,9000,9000,-98.446994,29.4207449,""
"Heb Pharmacy 556","2118 Fredericksburg Rd","BEXAR","San Antonio",NA,100,NA,NA,NA,100,-98.5257591,29.4658911,""
"Uhs Southwest","2121 Sw 36th St","BEXAR","San Antonio",NA,900,NA,100,NA,1000,-98.5755785,29.4081072,""
"HEB Pharmacy 189","2130 Culebra Rd","BEXAR","San Antonio",NA,100,NA,NA,NA,100,-98.5422332,29.4461169,""
"Hormazd Sanjana MD","2277 NWMilitary #100","BEXAR","San Antonio",NA,500,NA,NA,NA,500,NA,NA,""
"Texas Center For Infectious Disease","2303 Se Military Dr","BEXAR","San Antonio",NA,NA,NA,NA,200,200,-98.4565556,29.3541024,""
"Heb Pharmacy 658","23635 Wilderness Oak","BEXAR","San Antonio",NA,100,NA,NA,NA,100,-98.4998539,29.6626711,""
"HEB Pharmacy 566","24165 W Interstate 10 Ste 300","BEXAR","San Antonio",NA,100,NA,NA,NA,100,-98.6333034,29.6650454,""
"Heb Pharmacy 398","2929 Thousand Oaks Dr","BEXAR","San Antonio",NA,100,NA,NA,NA,100,-98.4390719,29.5767622,""
"Heb Pharmacy 385","300 W Olmos Dr","BEXAR","San Antonio",NA,100,NA,NA,NA,100,-98.496938,29.4698978,""
"Uhs Kenwood Clinic","302 Dora St","BEXAR","San Antonio",NA,NA,NA,100,NA,100,-98.4962091,29.4740383,""
"HEB Pharmacy 678","302 Valley Hi Dr","BEXAR","San Antonio",NA,100,NA,NA,NA,100,-98.6388761,29.3810588,""
"Uhs North","302 W Rector St","BEXAR","San Antonio",NA,2100,NA,200,NA,2300,-98.4973776,29.516419,""
"Quality Urgent Care","318 W. Loop 1604 N","BEXAR","San Antonio",NA,900,NA,NA,NA,900,-98.7100519,29.4348146,""
"Gruesbeck Medical Clinic Nw 24th St","323 Nw 24th Street","BEXAR","San Antonio",NA,100,NA,NA,NA,100,-98.5426193,29.4320089,""
"Heb Pharmacy 444","3323 Se Military Dr","BEXAR","San Antonio",NA,100,NA,NA,NA,100,-98.4334851,29.3520248,""
"Christus Children's Hospital Of San Antonio","333 N Santa Rosa St","BEXAR","San Antonio",NA,900,100,NA,NA,1000,-98.4982673,29.4281027,""
"Mission Trail Baptist Hospital","3333 Research Plz","BEXAR","San Antonio",NA,NA,NA,300,NA,300,-98.4383449,29.3446085,""
"South Texas Allergy and Asthma Medical Proffession","341 E Hildebrand","BEXAR","San Antonio",NA,500,NA,NA,NA,500,-98.4880514,29.4667254,""
"HEB Pharmacy 26","3524 S New Braunfels","BEXAR","San Antonio",NA,100,NA,NA,NA,100,-98.460062,29.3826938,""
"Kindred Hospital San Antonio","3636 Medical","BEXAR","San Antonio",NA,NA,NA,100,NA,100,-98.5565222,29.5225164,""
"UT Medicine","3939 Medical Dr Ste 100","BEXAR","San Antonio",NA,2000,NA,NA,NA,2000,-98.5609162,29.5204491,""
"The San Antonio Orthopaedic Group","400 Concord Plaza Dr Ste 300","BEXAR","San Antonio",NA,NA,NA,100,NA,100,-98.4812615,29.5066273,""
"Uhs Naco Perrin Clinic","4020 Naco Perrin Blvd","BEXAR","San Antonio",NA,100,NA,NA,NA,100,-98.4160836,29.5427889,""
"Christus Santa Rosa Hospital Alamo Heights","403 Treeline Park","BEXAR","San Antonio",NA,200,NA,NA,NA,200,-98.476144,29.5058195,""
"HEB Pharmacy 211","415 N New Braunfels Ave","BEXAR","San Antonio",NA,100,NA,NA,NA,100,-98.4628131,29.4247395,""
"Sage Medicine, Pa","4315 Moonlight Way","BEXAR","San Antonio",NA,NA,NA,100,NA,100,-98.568625,29.5552761,""
"Start Center For Cancer Care","4383 Medical Drive","BEXAR","San Antonio",NA,300,NA,NA,NA,300,-98.5721875,29.5117468,""
"Lung Diagnostics","4410 Medical Dr","BEXAR","San Antonio",NA,NA,NA,100,NA,100,-98.5714793,29.5099713,""
"University Health System","4502 Medical Dr","BEXAR","San Antonio",NA,NA,NA,NA,10725,10725,-98.5774288,29.5078141,""
"Uhs Zarzamora Clinic","4503 S Zarzamora St","BEXAR","San Antonio",NA,NA,NA,100,NA,100,-98.534296,29.3812385,""
"SAFD Office of Medical Director","4522 Fredricksburg Rd","BEXAR","San Antonio",NA,1600,NA,NA,NA,1600,-98.5508149,29.4927082,""
"HEB Pharmacy 191","4821 Broadway St","BEXAR","San Antonio",NA,100,NA,NA,NA,100,-98.4646132,29.4707925,""
"Cumberland Surgical Hospital","5330 North Loop 1604 West","BEXAR","San Antonio",NA,NA,NA,NA,200,200,-98.5902742,29.5907233,""
"Heb Pharmacy 262","5601 Bandera Rd","BEXAR","San Antonio",NA,100,NA,NA,NA,100,-98.5947683,29.4826729,""
"HEB Pharmacy 618","5910 Babcock Rd","BEXAR","San Antonio",NA,100,NA,NA,NA,100,-98.6033559,29.5270854,""
"Heb Pharmacy 389","6000 West Ave","BEXAR","San Antonio",NA,100,NA,NA,NA,100,-98.5250727,29.5155925,""
"Heb Pharmacy 384","6030 Montgomery","BEXAR","San Antonio",NA,100,NA,NA,NA,100,-98.3698495,29.5092087,""
"Wellmed Management","6157 NW Loop 410","BEXAR","San Antonio",NA,NA,NA,200,NA,200,-98.6162531,29.4721131,""
"Castle Hills family practice","6409 Bandera Road","BEXAR","San Antonio",NA,NA,NA,NA,100,100,-98.6099697,29.489513,""
"Surgical Arts Center","6501 Blanco Rd","BEXAR","San Antonio",NA,NA,NA,100,NA,100,-98.507325,29.515578,""
"Texas Department of Criminal Justice DOMINGUEZ","6535 Cagnon Rd","BEXAR","San Antonio",NA,NA,NA,100,NA,100,-98.7102669,29.3657374,""
"Heb Pharmacy 294","6580 Fm 78","BEXAR","San Antonio",NA,100,NA,NA,NA,100,-98.3591616,29.480082,""
"Legends Pharmacy","6601 Blanco Rd","BEXAR","San Antonio",NA,NA,NA,100,NA,100,-98.5072945,29.5162436,""
"Methodist Texsan Hospital","6700 W Interstate 10","BEXAR","San Antonio",NA,NA,900,NA,NA,900,-98.5478211,29.4899366,""
"San Antonio State Hospital","6711 S New Braunfels Ave","BEXAR","San Antonio",NA,NA,200,NA,NA,200,-98.4487541,29.358118,""
"HEB Pharmacy 84","6818 S Zarzamora St","BEXAR","San Antonio",NA,100,NA,NA,NA,100,-98.5331377,29.3604706,""
"HEB Pharmacy 178","6839 San Pedro Ave","BEXAR","San Antonio",NA,100,NA,NA,NA,100,-98.5002828,29.5036007,""
"Stone Oak Family Doctors, PA","700 E. Sonterra Blvd","BEXAR","San Antonio",NA,200,NA,100,NA,300,-98.4845895,29.6138615,""
"HEB Pharmacy 205","721 Castroville Rd","BEXAR","San Antonio",NA,100,NA,NA,NA,100,-98.554162,29.4180821,""
"Heb Pharmacy 427","735 Se Military Dr","BEXAR","San Antonio",NA,100,NA,NA,NA,100,-98.4890699,29.3570531,""
"Southwest General Hospital","7400 Barlite Blvd","BEXAR","San Antonio",NA,300,NA,NA,100,400,-98.5454083,29.3532906,""
"Dshs HSR 8 Hq - San Antonio (Re)","7430 Louis Pasteur Dr","BEXAR","San Antonio",NA,NA,NA,NA,1000,1000,-98.5732606,29.5041674,""
"Bandera Family Health","7579 N Loop 1604 W Ste 100","BEXAR","San Antonio",NA,100,NA,NA,NA,100,-98.6412139,29.5827795,""
"Wellness 360 (Adult)","7703 Floyd Curl Dr","BEXAR","San Antonio",NA,975,2925,NA,NA,3900,-98.5761644,29.5069796,""
"Steven A Davis MD, PA","7810 Louis Pasteur","BEXAR","San Antonio",NA,300,NA,200,NA,500,-98.5681314,29.5092882,""
"Uhs S. Flores Clinic","7902 S Flores St","BEXAR","San Antonio",NA,NA,NA,100,NA,100,-98.4863473,29.3472987,""
"Heb Pharmacy 224","7951 Guilbeau Rd","BEXAR","San Antonio",NA,100,NA,NA,NA,100,-98.6440745,29.5199413,""
"Methodist Specialty And Transplant Hospital","8026 Floyd Curl Dr","BEXAR","San Antonio",NA,900,700,NA,NA,1600,-98.5766312,29.5136324,""
"Endeavor Clinical Trials","8042 Wurzbach","BEXAR","San Antonio",NA,300,NA,NA,NA,300,-98.5768649,29.5147338,""
"HEB Pharmacy 613","8231 Marbach Rd","BEXAR","San Antonio",NA,100,NA,NA,NA,100,-98.6527678,29.4188327,""
"University Of Texas Medicine","8300 Floyd Curl Dr","BEXAR","San Antonio",NA,2500,NA,NA,NA,2500,-98.5812018,29.5157508,""
"Heb Pharmacy 647","8300 Floyd Curl Dr Ste 105","BEXAR","San Antonio",NA,200,NA,NA,NA,200,-98.5815588,29.5152794,""
"Uhs Harlandale Clinic","834 W Southcross Blvd Ste 1","BEXAR","San Antonio",NA,NA,NA,100,NA,100,-98.523314,29.3678078,""
"HEB Pharmacy 102","8503 Nw Military Hwy","BEXAR","San Antonio",NA,100,NA,NA,NA,100,-98.5341444,29.552849,""
"San Antonio Arthritis Care Centers Pharm","8527 Village Drive","BEXAR","San Antonio",NA,300,NA,NA,NA,300,-98.428061,29.5172486,""
"Arthur S Hernandez Md","88 Briggs St","BEXAR","San Antonio",NA,NA,NA,100,NA,100,-98.5491414,29.3546265,""
"Post Acute Medical Spec Hospital San Antonio South","8902 Floyd Curl Drive","BEXAR","San Antonio",NA,NA,300,NA,NA,300,-98.5899167,29.5267426,""
"Gonzaba Medical Group Woodlawn Clinic","902 Bandera Rd","BEXAR","San Antonio",NA,1000,NA,NA,NA,1000,-98.5540547,29.4573459,""
"Uhs Rbg Pedi 1st Floor","903 W Martin St","BEXAR","San Antonio",NA,NA,NA,300,NA,300,-98.5015692,29.4309066,""
"University Health System - Robert B Green Campus","903 W Martin St","BEXAR","San Antonio",NA,1600,NA,NA,NA,1600,-98.5015692,29.4309066,""
"Uhs Family Health Clinic","903 W Martin St Fl 4","BEXAR","San Antonio",NA,1200,NA,NA,NA,1200,-98.5017409,29.430673,""
"Healthsouth Riosa Rehabilitation Hospital Pharmacy","9119 Cinnamon Hl","BEXAR","San Antonio",NA,NA,NA,NA,300,300,-98.5842069,29.5275171,""
"Uhs Hilliard Center","919 Locke St","BEXAR","San Antonio",NA,NA,NA,200,NA,200,-98.4486703,29.4377902,""
"HEB Pharmacy 623","9238 N Loop 1604 W","BEXAR","San Antonio",NA,100,NA,NA,NA,100,-98.664184,29.5536932,""
"Heb Pharmacy 235","9255 Fm 471 West","BEXAR","San Antonio",NA,100,NA,NA,NA,100,-98.6642643,29.4853041,""
"Foundation Surgical Hospital Of San Antonio","9522 Huebner Rd","BEXAR","San Antonio",NA,500,NA,NA,NA,500,-98.5898738,29.5302075,""
"HEB Pharmacy 480","9900 Wurzbach Rd","BEXAR","San Antonio",NA,100,NA,NA,NA,100,-98.5600842,29.5313246,""
"Heb Pharmacy 567","999 E Basse Rd","BEXAR","San Antonio",NA,100,NA,NA,NA,100,-98.4684059,29.4980193,""
"The University of Texas at San Antonio","One UTSA Circle","BEXAR","San Antonio",NA,NA,NA,100,NA,100,-98.6167664,29.5845786,""
"Ut Heath Westover Hills Clinic, - San Antonio","11212 State Highway 151, Suite 100 Sa Tx 7","BEXAR","San Antonio",NA,1000,NA,NA,NA,1000,-98.6964471,29.4671497,""
"Heb Pharmacy 555","910 Kitty Hawk Rd","BEXAR","Universal City",NA,100,NA,NA,NA,100,-98.3124828,29.5465156,""
"North Blanco County Ems","105 Bill Watson Dr","BLANCO","Johnson City",NA,NA,NA,300,NA,300,-98.3981444,30.27242,""
"Clifton Medical Clinic","201 Posey Ave","BOSQUE","Clifton",NA,500,NA,500,NA,1000,-97.5886809,31.7769709,""
"Brookshires Pharmacy 92","900 Fm 3220","BOSQUE","Clifton",NA,NA,NA,100,NA,100,-97.5855494,31.7916338,""
"Brookshires Pharmacy 100","9295 Hwy 6","BOSQUE","Meridian",NA,100,NA,100,NA,200,-97.664045,31.9143769,""
"Brookshires Pharmacy 72","210 N Mccoy Blvd","BOWIE","New Boston",NA,100,NA,NA,NA,100,-94.4067158,33.4627953,""
"Texas Department of Criminal Justice Telford","3899 State Hwy 98","BOWIE","New Boston",NA,NA,NA,100,NA,100,-94.4779844,33.4224643,""
"Wadley Regional Medical Center","1000 Pine","BOWIE","Texarkana",NA,NA,200,NA,200,400,-94.0481498,33.4289096,""
"Pam Specialthy Hospital Of Texarkana North","2400 St. Michael Drive 2nd Floor","BOWIE","Texarkana",NA,NA,NA,NA,100,100,-94.070983,33.464425,""
"Christus St Michael Health System","2600 Saint Michael Dr","BOWIE","Texarkana",NA,NA,1575,NA,NA,1575,-94.0754547,33.4638683,""
"Super 1 Pharmacy 618","2610 Richmond Rd","BOWIE","Texarkana",NA,100,NA,NA,NA,100,-94.0875947,33.4596231,""
"Collom And Carney Main Clinic","5002 Cowhorn Creek Rd","BOWIE","Texarkana",NA,NA,NA,NA,300,300,-94.0773638,33.4648478,""
"Lhd Texarkana-Bowie Co Fam Hlth Cntr (Re)","902 W 12th St","BOWIE","Texarkana",NA,NA,NA,100,NA,100,-94.0526597,33.4294187,""
"Adoue Community Health Network","1111 West Adoue","BRAZORIA","Alvin",NA,100,NA,NA,NA,100,-95.2551202,29.4196128,""
"Walgreens Pharmacy 04113","1620 S Gordon St","BRAZORIA","Alvin",NA,NA,NA,100,NA,100,-95.2442066,29.4095742,""
"Women's And Children's Health Center- 061736","218 E House St","BRAZORIA","Alvin",NA,NA,NA,100,NA,100,-95.2421057,29.4180445,""
"BRAZORIA COUNTY HEALTH DEPT ALVIN","260 GEORGE ST","BRAZORIA","Alvin",NA,300,NA,NA,NA,300,-95.2452852,29.4152749,""
"Kroger Pharmacy 321","3100 Hwy 35","BRAZORIA","Alvin",NA,NA,NA,100,NA,100,-95.2384722,29.4484386,""
"Walgreens Pharmacy 04373","1001 Loop 274","BRAZORIA","Angleton",NA,NA,NA,100,NA,100,-95.4323748,29.1583985,""
"Utmb-Angleton Danbury Campus","132 E Hospital Dr","BRAZORIA","Angleton",NA,500,NA,NA,NA,500,-95.4040995,29.1839402,""
"Kroger Pharmacy 256","1804 N Velasco St","BRAZORIA","Angleton",NA,NA,NA,100,NA,100,-95.4322,29.16678,""
"Next Level Urgent Care Brazoria","20799 County Road 171","BRAZORIA","Angleton",NA,NA,NA,200,NA,200,-95.4024223,29.174363,""
"Brazoria County Health Department","434 E Mulberry St","BRAZORIA","Angleton",NA,NA,NA,100,NA,100,-95.4278825,29.1643744,""
"Walgreens Pharmacy 04100","51 Dixie Dr","BRAZORIA","Clute",NA,NA,NA,100,NA,100,-95.4196058,29.018367,""
"Kroger Pharmacy 149","800 N Dixie Dr","BRAZORIA","Clute",NA,NA,NA,100,NA,100,-95.4192414,29.0174528,""
"Freeport Community Health Network- 061447","905 N Gulf Blvd Ste 100","BRAZORIA","Freeport",NA,100,NA,NA,NA,100,-95.3688064,28.9677201,""
"CHI St.Lukes Health Brazosport","100, Medical Drive","BRAZORIA","Lake Jackson",NA,500,500,NA,NA,1000,-95.4527189,29.0295851,""
"Brazoria County Health Department-Lake Jackson","202 Peach St","BRAZORIA","Lake Jackson",NA,NA,NA,100,NA,100,-95.4277631,29.0198421,""
"HEB Pharmacy 707","97 Oyster Creek Dr","BRAZORIA","Lake Jackson",NA,100,NA,100,NA,200,-95.4460047,29.0423654,""
"Prestige Medical P.A","3945 County Road 58","BRAZORIA","Manvel",NA,NA,NA,100,NA,100,-95.391841,29.514346,""
"Randalls Pharmacy 1858","10228 Broadway","BRAZORIA","Pearland",NA,NA,NA,100,NA,100,-95.3792326,29.554686,""
"Internal Medicine Associates Of Houston","10970 Shadow Creek Pkwy","BRAZORIA","Pearland",NA,200,NA,NA,NA,200,-95.3888018,29.5771511,""
"Murtaza Mussaji D.O.P.A","11021 Shadow Creek Pkwy","BRAZORIA","Pearland",NA,300,NA,NA,NA,300,-95.3878106,29.5830292,""
"HCA Houston Healthcare Pearland","11100 Shadow Creek Parkway","BRAZORIA","Pearland",NA,NA,100,NA,NA,100,-95.3901924,29.5775464,""
"Walgreens Pharmacy 07459","1515 Broadway","BRAZORIA","Pearland",NA,NA,NA,100,NA,100,-95.2303788,29.5472905,""
"Memorial Hermann Pearland Hospital","16100 South Fwy","BRAZORIA","Pearland",NA,1600,NA,NA,NA,1600,-95.3892216,29.5637754,""
"Encompass Rehabilitation Hospital of Pearland","2121 Business Center Drive","BRAZORIA","Pearland",NA,NA,100,NA,NA,100,-95.3902346,29.5733034,""
"Pearland Family Health Center-061819","2552 Broadway St # 102","BRAZORIA","Pearland",NA,NA,NA,100,NA,100,NA,NA,""
"Heb Pharmacy 675","2710 Pearland Pkwy","BRAZORIA","Pearland",NA,100,NA,NA,NA,100,-95.264972,29.5582129,""
"HEB Pharmacy 63","2805 Business Center Dr.","BRAZORIA","Pearland",NA,100,NA,100,NA,200,-95.3905069,29.5591682,""
"Kroger Pharmacy 343","8323 Broadway St","BRAZORIA","Pearland",NA,NA,NA,100,NA,100,-95.3489815,29.5604214,""
"Texas Department of Criminal Justice Ramsey 1","1100 FM655","BRAZORIA","Rosharon",NA,NA,NA,100,NA,100,-95.5376927,29.3108243,""
"Texas Department of Criminal Justice Stringfellow","1200 FM 655","BRAZORIA","Rosharon",NA,NA,NA,100,NA,100,-95.5467978,29.285969,""
"Texas Department of Criminal Justice Terrell","1300 FM 655","BRAZORIA","Rosharon",NA,NA,NA,100,NA,100,-95.5391551,29.299352,""
"Texas Department of Criminal Justice DARRINGTON","59 Darrington Rd","BRAZORIA","Rosharon",NA,NA,NA,100,NA,100,-95.4905835,29.39965,""
"Sweeny Community Hospital","305 N Mckinney St","BRAZORIA","Sweeny",NA,NA,200,NA,NA,200,-95.6917378,29.0478738,""
"Walgreens Pharmacy 12052","100 E Brazos Ave","BRAZORIA","West Columbia",NA,NA,NA,100,NA,100,-95.647356,29.1450383,""
"Healthpoint Memorial","1301 Memorial Drive","BRAZOS","Bryan",NA,NA,NA,100,NA,100,-96.3449173,30.6514311,""
"CHI St. Joseph Health Rehabilitation Hospital, an","1600 Joseph Dr.","BRAZOS","Bryan",NA,NA,NA,NA,100,100,-96.3508996,30.6602581,""
"Heb Pharmacy 644","1609 N Texas Ave","BRAZOS","Bryan",NA,100,NA,NA,NA,100,-96.3721406,30.6898726,""
"Chi St Joseph Prmry Care W Villa Maria","1612 W Villa Maria Rd Ste 130","BRAZOS","Bryan",NA,NA,NA,100,NA,100,-96.3807465,30.6310637,""
"Brookshires Pharmacy 1004","210 N Main St","BRAZOS","Bryan",NA,500,NA,NA,NA,500,-96.3734917,30.6751562,""
"Chi St Joseph Primary Care 29th","2210 E 29th St","BRAZOS","Bryan",NA,NA,NA,200,NA,200,-96.350652,30.6588473,""
"Kroger Pharmacy 383","2303 Boonville Rd","BRAZOS","Bryan",NA,NA,NA,100,NA,100,-96.3357555,30.6726158,""
"Chi St Joseph Primary Austins Colony","2410 Boonville Rd","BRAZOS","Bryan",NA,NA,NA,300,NA,300,-96.3328681,30.6715261,""
"Bryan Family Medicine Clinic","2709 Osler Blvd","BRAZOS","Bryan",NA,NA,NA,100,NA,100,-96.3472761,30.6552369,""
"St Joseph Hospital (Meditech)","2801 Franciscan Dr","BRAZOS","Bryan",NA,2300,200,NA,300,2800,-96.34596,30.6561514,""
"Bryan Opco LLC DBA Legacy Nrsig and Rbltn","2817 Kent St","BRAZOS","Bryan",NA,100,NA,NA,NA,100,-96.344894,30.6547085,""
"Texas A&M Health Family Care Clinic","2900 E 29th St","BRAZOS","Bryan",NA,NA,NA,NA,100,100,-96.3435877,30.655523,""
"Brazos County Health And Wellness","300 E Wm J Bryan Pkwy Ste 200","BRAZOS","Bryan",NA,NA,NA,100,NA,100,-96.375508,30.6754376,""
"THE PHYSICIANS CENTRE HOSPITAL","3131 University Dr E","BRAZOS","Bryan",NA,NA,NA,NA,200,200,-96.2976892,30.6505486,""
"Chi St Joseph Primary Care University Dr","3201 University Dr E Ste 425","BRAZOS","Bryan",NA,NA,NA,200,NA,200,-96.2974786,30.6505121,""
"Health Point Bcs","3370 S Texas Ave","BRAZOS","Bryan",NA,NA,NA,100,NA,100,-96.3501548,30.6394937,""
"HEB Pharmacy 544","725 E Villa Maria","BRAZOS","Bryan",NA,100,NA,NA,NA,100,-96.3507177,30.6439125,""
"HEB Pharmacy 746","11675 Fm 2154 Rd","BRAZOS","College Station",NA,100,NA,NA,NA,100,-96.3214757,30.5834341,""
"CHI St Joseph Primary Care- College Station","1512 Holleman Dr","BRAZOS","College Station",NA,NA,NA,NA,100,100,-96.3189856,30.6091287,""
"Healthpoint Abc","1602 Rock Prairie Rd","BRAZOS","College Station",NA,NA,NA,100,NA,100,-96.2895514,30.5812927,""
"Chi St Joseph Health College Station Hospital","1604 Rock Prairie Rd","BRAZOS","College Station",NA,300,300,NA,NA,600,-96.289711,30.5812822,""
"CHI St. Joseph College Station Hospital","1604 Rock Prairie Rd","BRAZOS","College Station",NA,NA,NA,NA,1200,1200,-96.289711,30.5812822,""
"HEB Pharmacy 543","1900 Texas Ave S","BRAZOS","College Station",NA,100,NA,NA,NA,100,-96.318952,30.6122816,""
"Chi St. Joseph Primary Care-Wd Fitch","2849 Barron Rd","BRAZOS","College Station",NA,200,NA,NA,NA,200,-96.2922501,30.5552356,""
"Kroger Pharmacy 361","3535 Longmire Dr","BRAZOS","College Station",NA,NA,NA,100,NA,100,-96.2859614,30.5818454,""
"Baylor Scott & White Medical Center - College Station","700 Scott And White Dr","BRAZOS","College Station",NA,NA,200,NA,NA,200,-96.2795053,30.5822251,""
"HEB Pharmacy 619","949 William D Fitch Pkwy","BRAZOS","College Station",NA,100,NA,NA,NA,100,-96.2609947,30.5590246,""
"Big Bend Regional Health Center","2600 Highway North 118","BREWSTER","Alpine",NA,NA,NA,NA,200,200,-103.6707443,30.3842098,""
"Family Health services of Alpine","406 S Summer st","BREWSTER","Alpine",NA,400,NA,NA,NA,400,NA,NA,""
"Cogdell Clinic Briscoe County","701 Commerce St","BRISCOE","Silverton",NA,NA,NA,100,NA,100,-101.3053487,34.4728828,""
"HEB Pharmacy 200","800 S Saint Marys St","BROOKS","Falfurrias",NA,100,NA,100,NA,200,-98.1455183,27.2196838,""
"Hendrick Medical Center Brownwood","1501 Burnett Rd","BROWN","Brownwood",NA,600,NA,NA,100,700,-98.9926443,31.6716678,""
"Walgreens Pharmacy 11926","200 W Commerce St","BROWN","Brownwood",NA,NA,NA,100,NA,100,-98.9808302,31.7276016,""
"Burleson St Joseph Health Center","1101 Woodson Dr","BURLESON","Caldwell",NA,NA,100,NA,NA,100,-96.7164547,30.5202339,""
"Brookshires Pharmacy 44","455 Hwy 36 N","BURLESON","Caldwell",NA,100,NA,NA,NA,100,-96.6889791,30.5339355,""
"Brookshires Pharmacy 65","16800 Sh 36 South","BURLESON","Somerville",NA,100,NA,NA,NA,100,-96.5356865,30.3525626,""
"Heb Pharmacy 433","105 S Boundary St","BURNET","Burnet",NA,100,NA,NA,NA,100,-98.2230068,30.7586721,""
"Ascension Seton Highland Lakes Burnet Clinic","200 John W Hoover Pkwy","BURNET","Burnet",NA,NA,NA,100,NA,100,-98.2352752,30.7330913,""
"Ascension Seton HIghland Lakes","3201 S. Water Street","BURNET","Burnet",NA,200,100,NA,100,400,-98.2367648,30.7330977,""
"HEB Pharmacy 735","1503 Fm 1431","BURNET","Marble Falls",NA,100,NA,NA,NA,100,-98.2799355,30.5828556,""
"Atkins Express Pharmacy","2607 Hwy 281 N","BURNET","Marble Falls",NA,NA,NA,100,NA,100,-98.26991,30.5973094,""
"ATKINS PHARMACY SERVICES, INC.","701 THIRD ST","BURNET","Marble Falls",NA,200,NA,NA,NA,200,-98.2751257,30.5714439,""
"BSW Medical Center Marble Falls","810 Tx-71w","BURNET","Marble Falls",NA,500,100,NA,100,700,-98.3044814,30.5129753,""
"Walgreens Pharmacy 11131","200 S Colorado St","CALDWELL","Lockhart",NA,NA,NA,100,NA,100,-97.6696051,29.8838122,""
"Heb Pharmacy 445","403 S Colorado St","CALDWELL","Lockhart",NA,100,NA,100,NA,200,-97.6698912,29.8805501,""
"Seton Edgar B Davis Hospital","130 Hays St","CALDWELL","Luling",NA,200,NA,NA,100,300,-97.6544719,29.6730884,""
"PAM Specialty Hospital of Luling","200 Memorial Dr","CALDWELL","Luling",NA,NA,NA,NA,200,200,-97.6550695,29.6740564,""
"DIsmukesRx, LLC","511 East Davis Street","CALDWELL","Luling",NA,NA,NA,100,NA,100,-97.6496189,29.681804,""
"Heb Pharmacy 434","101 Calhoun Plz","CALHOUN","Port Lavaca",NA,100,NA,NA,NA,100,-96.6377617,28.6267822,""
"Memorial Medical Clinic - Port Lavaca","1016 N. Virgnia","CALHOUN","Port Lavaca",NA,NA,NA,100,NA,100,-96.6322937,28.6228485,""
"Port Lavaca Clinic Associates P.A.","1200 N Virginia St","CALHOUN","Port Lavaca",NA,NA,NA,NA,100,100,-96.6333532,28.6247823,""
"Memorial Medical Center","815 N Virginia St","CALHOUN","Port Lavaca",NA,300,NA,NA,NA,300,-96.6321635,28.620326,""
"Resourcecare Clinic Clyde","1712 N Access Rd","CALLAHAN","Clyde",NA,NA,NA,100,NA,100,-99.5144261,32.4159554,""
"United Pharmacy 578","505 S Access Rd W","CALLAHAN","Clyde",NA,200,NA,NA,NA,200,-99.4922224,32.4115318,""
"Valley Regional Medical Center","100A E. Alton Gloor","CAMERON","Brownsville",NA,600,100,NA,300,1000,-97.5146344,25.9780246,""
"Valley Baptist Medical Center Brownsville","1040 W Jefferson St","CAMERON","Brownsville",NA,900,NA,NA,NA,900,-97.5108492,25.9180715,""
"Ccdhhs Mary P Lucio Health Clinic","1204 Jose Colunga Jr St","CAMERON","Brownsville",NA,NA,100,NA,NA,100,-97.438558,25.9051749,""
"Heb Pharmacy 263","1628 Central Blvd","CAMERON","Brownsville",NA,100,NA,NA,NA,100,-97.5101725,25.9261884,""
"Brownsville Community Health Center","191 E. Price Rd","CAMERON","Brownsville",NA,100,NA,100,NA,200,-97.4625621,25.9314958,""
"S Texas Cancer Ctr Brownsville","2150 N Expressway 83","CAMERON","Brownsville",NA,NA,NA,100,NA,100,-97.5039866,25.946478,""
"Heb Pharmacy 446","2155 Paredes Line Rd","CAMERON","Brownsville",NA,100,NA,NA,NA,100,-97.4885176,25.9500179,""
"HEB Pharmacy 489","2250 Boca Chica Blvd","CAMERON","Brownsville",NA,100,NA,NA,NA,100,-97.4885945,25.9202983,""
"Valley Doctors Clinic Of Brownsville, Pllc","2300 Central Blvd","CAMERON","Brownsville",NA,NA,NA,100,NA,100,-97.5097668,25.9361539,""
"Jk Family Clinic","2886 West Altongloor","CAMERON","Brownsville",NA,NA,NA,100,NA,100,-97.5380095,25.9692843,""
"Heb Pharmacy 332","2950 Southmost Rd","CAMERON","Brownsville",NA,100,NA,NA,NA,100,-97.4646983,25.9055371,""
"Solara Specialty Hospital Brownsville","333 Lorenaly Drive","CAMERON","Brownsville",NA,100,NA,NA,NA,100,-97.5102571,25.9738439,""
"M And M Adult Clinic","4365 S. Expressway 77/83","CAMERON","Brownsville",NA,NA,NA,100,NA,100,-97.5153208,25.9687891,""
"Ronaldo Factoriza Md","680 Paredes Line Rd","CAMERON","Brownsville",NA,300,NA,NA,NA,300,-97.4879699,25.9321593,""
"Carlos Rosas MD PA","704 Paredes Line Rd Ste A","CAMERON","Brownsville",NA,NA,NA,100,NA,100,-97.4878001,25.9324948,""
"UTHealth RGV AHEC Primary Care At Bob Clark","9901 California Rd.","CAMERON","Brownsville",NA,NA,NA,100,NA,100,-97.390241,25.8963204,""
"Edinburg Regional Medical Center","1102 W. Trenton Road","CAMERON","Edinburg",NA,1400,NA,NA,NA,1400,-98.1819444,26.2614172,""
"Garcia's Pharmacy LLC","101 S Stuart Place Rd","CAMERON","Harlingen",NA,100,NA,NA,NA,100,-97.7587748,26.1884052,""
"Salinas Pharmacy","1022 South F St.","CAMERON","Harlingen",NA,NA,NA,100,NA,100,-97.7025957,26.1826207,""
"HEB Pharmacy 168","1103 Morgan Blvd","CAMERON","Harlingen",NA,100,NA,NA,NA,100,-97.6768549,26.2037622,""
"HEB Pharmacy 136","1213 S Commerce St","CAMERON","Harlingen",NA,100,NA,NA,NA,100,-97.6816037,26.1814962,""
"Rio Grande State Center","1401 S Rangerville Rd","CAMERON","Harlingen",NA,600,NA,100,NA,700,-97.7071966,26.1609648,""
"Valley Baptist Medical Center","2101 Pease St","CAMERON","Harlingen",NA,NA,800,NA,NA,800,-97.6705186,26.1746446,""
"Ut Health Rgv Multispecialty","2106 Treasure Hills Blvd Ste 1.326","CAMERON","Harlingen",NA,500,NA,NA,NA,500,-97.6656348,26.1740889,""
"S Texas Cancer Ctr Harlingen","2121 Pease St Ste","CAMERON","Harlingen",NA,NA,NA,100,NA,100,-97.6701251,26.1747952,""
"Valley Baptist Family Practice Residency","2222 Benwood St","CAMERON","Harlingen",NA,600,NA,NA,NA,600,-97.6691811,26.1762428,""
"AV Rehab, LLC","2902 S. 77 Sunshine Strip","CAMERON","Harlingen",NA,100,NA,NA,NA,100,-97.6671345,26.1669059,""
"Harlingen Medical Center","5501 S Expressway 77","CAMERON","Harlingen",NA,NA,800,NA,NA,800,-97.6748515,26.1581119,""
"DIANA LOZANO MD PA","5505 S Expressway 77","CAMERON","Harlingen",NA,NA,NA,100,NA,100,-97.6752316,26.1566592,""
"Stephanie H. Garcia, M.D.","5505 S. Expressway 77","CAMERON","Harlingen",NA,500,NA,NA,NA,500,-97.6752316,26.1566592,""
"DSHS PHR 11","601 W. Sesame Drive","CAMERON","Harlingen",NA,NA,NA,NA,1000,1000,-97.6815189,26.1659992,""
"Heb Pharmacy 291","613 S Exp Hwy 83","CAMERON","Harlingen",NA,100,NA,NA,NA,100,-97.7135951,26.183679,""
"Friendly Neighborhood Health Clinic Pllc","617 E Loop 499","CAMERON","Harlingen",NA,NA,NA,200,NA,200,-97.6906909,26.2243567,""
"Ccdhhs Harlingen Nursing Office","711 N L St","CAMERON","Harlingen",NA,NA,NA,1000,NA,1000,-97.7098367,26.1988945,""
"Sanchez Mario A Do","106 N Main","CAMERON","La Feria",NA,NA,NA,NA,100,100,-97.8237187,26.1581202,""
"Los Fresnos Pharmacy","810 W. Ocean Blvd","CAMERON","Los Fresnos",NA,NA,NA,100,NA,100,-97.4874837,26.0728682,""
"Father Joseph Obrien Health Clinic","142 Champion Ave","CAMERON","Port Isabel",NA,NA,NA,100,NA,100,-97.2143505,26.0715152,""
"Port Isabel Health Clinic","202 2nd St","CAMERON","Port Isabel",NA,200,NA,NA,NA,200,-97.2247325,26.0740953,""
"HEB Pharmacy 626","1095 West Business Hwy 77","CAMERON","San Benito",NA,100,NA,NA,NA,100,-97.636736,26.143544,""
"Cameron County Public Health","1390 W Expressway 83","CAMERON","San Benito",NA,NA,NA,NA,6000,6000,-97.6540673,26.1404541,""
"Ccdhhs San Benito Nursing Office","1390 W Expressway 83","CAMERON","San Benito",NA,NA,100,NA,NA,100,-97.6540673,26.1404541,""
"Lhd Cameron County Health Department (Re","1390 W Expressway 83","CAMERON","San Benito",NA,200,2000,NA,NA,2200,-97.6540673,26.1404541,""
"Valley House Calls Pllc","1795 W Us Highway 77","CAMERON","San Benito",NA,1000,NA,NA,NA,1000,-97.65140,26.15595,""
"Salinas Pharmacy Inc","500 N Sam Houston Blvd","CAMERON","San Benito",NA,NA,NA,100,NA,100,-97.6285581,26.1348495,""
"Ut Health Pittsburg Hospital","2701 Us Highway 271 N","CAMP","Pittsburg",NA,NA,NA,NA,100,100,-94.9594413,33.0329967,""
"Panhandle Family Care Llc","102 Us Highway 60","CARSON","Panhandle",NA,100,NA,NA,NA,100,-101.3768392,35.3389739,""
"Christus St. Michael Hospital - Atlanta","1007 S William St","CASS","Atlanta",NA,100,NA,NA,NA,100,-94.1634445,33.1055893,""
"Medical Center Of Dimmitt","300 W Halsell St","CASTRO","Dimmitt",NA,100,NA,NA,100,200,-102.3153404,34.5561362,""
"CHAMBERS COUNTY HEALTH DEPT ANAHUAC","102 AIRPORT RD","CHAMBERS","Anahuac",NA,200,NA,300,NA,500,-94.6630784,29.7743035,""
"HEB Pharmacy 741","13401 I-10 East","CHAMBERS","Baytown",NA,100,NA,NA,NA,100,-94.8491468,29.8271368,""
"West Chambers Medical Clinic","9825 Eagle Dr","CHAMBERS","Baytown",NA,NA,NA,100,NA,100,-94.8539676,29.8402654,""
"Brookshires Pharmacy 1002","204 Broadway","CHAMBERS","Winnie",NA,200,NA,NA,NA,200,-94.3824138,29.8201727,""
"Riceland Medical Center","538 Broadway Ste 1","CHAMBERS","Winnie",NA,500,NA,500,NA,1000,-94.3766286,29.81972,""
"Brookshires Pharmacy 7","210 N Marcus","CHEROKEE","Alto",NA,100,NA,NA,NA,100,-95.0733704,31.65336,""
"Christus Mother Frances Hospital - Jacksonville","2026 S Jackson St","CHEROKEE","Jacksonville",NA,100,100,NA,NA,200,-95.2477966,31.9384049,""
"Brookshires Pharmacy 17","210 E Cherokee St","CHEROKEE","Jacksonville",NA,300,NA,NA,NA,300,-95.2739128,31.9663933,""
"Ut Health Jacksonville Hospital","501 S Ragsdale St","CHEROKEE","Jacksonville",NA,NA,NA,NA,100,100,-95.270566,31.9602405,""
"LHD Cherokee County Health Department (RE)","803 College Ave","CHEROKEE","Jacksonville",NA,NA,NA,200,200,400,-95.2770996,31.9550228,""
"Chapman Pharmacy","108 E 5th St","CHEROKEE","Rusk",NA,100,NA,NA,NA,100,-95.1503007,31.794876,""
"Texas Department of Criminal Justice Skyview","379 FM 2972","CHEROKEE","Rusk",NA,100,NA,NA,NA,100,-95.166183,31.8134285,""
"Brookshires Pharmacy 22","425 N Main St","CHEROKEE","Rusk",NA,200,NA,NA,NA,200,-95.1509019,31.800256,""
"Rusk State Hospital","805 North Dickinson Dr","CHEROKEE","Rusk",NA,500,400,NA,NA,900,-95.157752,31.8071923,""
"Fox Rural Health Clinic","1001 Us Highway 83 N","CHILDRESS","Childress",NA,100,NA,200,NA,300,-100.2269387,34.4393644,""
"United Pharmacy 518","2105 Avenue F Nw","CHILDRESS","Childress",NA,NA,NA,100,NA,100,-100.2290619,34.4343173,""
"Childress Regional Medical Center","901 Highway 83 North","CHILDRESS","Childress",NA,100,200,NA,NA,300,-100.2268949,34.4392524,""
"Ccmh Clinic","102 S Archer St","CLAY","Henrietta",NA,100,NA,NA,NA,100,-98.1982051,33.8155821,""
"Clay County Memorial Hospital","310 W South St","CLAY","Henrietta",NA,NA,NA,100,NA,100,-98.1983382,33.8143203,""
"Cochran Memorial Hospital","201 E Grant Ave Ste 100","COCHRAN","Morton",NA,NA,NA,NA,100,100,-102.7575539,33.719647,""
"Coleman Medical Associates","310 S Pecos St Fl 2","COLEMAN","Coleman",NA,200,NA,NA,NA,200,-99.4256044,31.8284628,""
"OWL DRUG STORE","312 COMMERCIAL","COLEMAN","Coleman",NA,NA,NA,200,NA,200,-99.423285,31.8284697,""
"Kroger Pharmacy 548","1210 N Greenville Ave","COLLIN","Allen",NA,NA,100,100,NA,200,-96.6503051,33.1159961,""
"Kroger Pharmacy 544","1212 E Bethany Dr","COLLIN","Allen",NA,NA,NA,100,NA,100,-96.6445205,33.0827366,""
"Walgreens Pharmacy 04787","1226 W Mcdermott Dr","COLLIN","Allen",NA,NA,NA,100,NA,100,-96.6976906,33.1012877,""
"Allen Fire Department","310 Century Pkwy","COLLIN","Allen",NA,200,NA,300,NA,500,-96.6752143,33.0991682,""
"Walgreens Pharmacy 04860","510 E Main St","COLLIN","Allen",NA,NA,NA,100,NA,100,-96.6608469,33.0998491,""
"Tom Thumb Pharmacy 3579","900 W Mcdermott Dr","COLLIN","Allen",NA,NA,100,100,NA,200,-96.6830258,33.1031684,""
"Market Street Pharmacy 563","985 W Bethany Dr","COLLIN","Allen",NA,NA,NA,100,NA,100,-96.6846968,33.0897784,""
"Brookshires Pharmacy 131","1325 W White St","COLLIN","Anna",NA,100,100,100,NA,300,-96.5659111,33.3428398,""
"Brookshires Pharmacy 73","675 E Sunset Blvd","COLLIN","Celina",NA,100,100,100,NA,300,-96.7774236,33.3129749,""
"Celina Drug","701 N Preston Rd Ste 210","COLLIN","Celina",NA,500,NA,100,NA,600,-96.772343,33.3306751,""
"Tom Thumb Pharmacy 3582","18212 Preston Rd","COLLIN","Dallas",NA,NA,100,100,NA,200,-96.7937419,32.9998487,""
"Walgreens Pharmacy 05710","18410 Preston Rd","COLLIN","Dallas",NA,NA,NA,100,NA,100,-96.7956669,33.0012327,""
"Town of Fairview","372 Town Place","COLLIN","Fairview",NA,100,NA,NA,NA,100,-96.6463958,33.1321208,""
"Brookshires Pharmacy 79","1705 W Audie Murphy Pkwy","COLLIN","Farmersville",NA,100,100,100,NA,300,-96.3887714,33.157969,""
"United Market St Pharmacy 562","11999 Dallas Pkwy","COLLIN","Frisco",NA,500,NA,100,NA,600,-96.8429726,33.1770426,""
"Baylor Scott And White Medical Center - Centennial","12505 Lebanon Rd","COLLIN","Frisco",NA,300,100,NA,100,500,-96.7709774,33.1141843,""
"Market Street Pharmacy 685","4268 Legacy Dr","COLLIN","Frisco",NA,NA,NA,100,NA,100,-96.8376442,33.1146838,""
"Centennial ASC, LLC","4401 Coit Road","COLLIN","Frisco",NA,NA,NA,100,NA,100,-96.7698688,33.1136232,""
"Tom Thumb Pharmacy 2581","4848 Preston Rd","COLLIN","Frisco",NA,NA,100,100,NA,200,-96.803786,33.1190305,""
"Kroger Pharmacy 546","4851 Legacy Drive","COLLIN","Frisco",NA,NA,100,100,NA,200,-96.8402506,33.1169905,""
"Walgreens Pharmacy 04786","5049 Preston Rd","COLLIN","Frisco",NA,NA,NA,100,NA,100,-96.806222,33.1205662,""
"Medical City Frisco","5500 Frisco Square Blvd","COLLIN","Frisco",NA,400,1200,NA,100,1700,-96.8388754,33.1509332,""
"Frisco Medical Center","5601 Warren Pkwy","COLLIN","Frisco",NA,1800,100,NA,NA,1900,-96.8375358,33.1052,""
"Pediatric Pulmonary Associates of North Texas, P.A","8501 Wade Blvd, Suite 1020","COLLIN","Frisco",NA,100,NA,NA,NA,100,-96.8093109,33.1286995,""
"Frisco Fire Department","8601 Gary Burns Dr.","COLLIN","Frisco",NA,300,NA,NA,NA,300,-96.8098969,33.1492182,""
"Mckinney Isd","1 Duvall St","COLLIN","McKinney",NA,NA,NA,100,NA,100,-96.6323307,33.2063877,""
"Walgreens Pharmacy 09908","1651 W Univeristy Dr","COLLIN","McKinney",NA,NA,NA,100,NA,100,-96.6309948,33.2158735,""
"Kroger Pharmacy 488","1707 W University Dr","COLLIN","McKinney",NA,NA,100,100,NA,200,-96.6328754,33.215552,""
"Kroger Pharmacy 565","1801 N Lake Forest Dr","COLLIN","McKinney",NA,NA,NA,100,NA,100,-96.6809966,33.2164953,""
"City Of Mckinney Fire Department","2200 Taylor Burk Dr","COLLIN","McKinney",NA,800,NA,NA,NA,800,-96.6406795,33.2239222,""
"Healthcare Associates of Irving, LLP","2760 Virginia Pkwy","COLLIN","McKinney",NA,NA,NA,200,NA,200,-96.6525788,33.1993816,""
"Kroger Pharmacy 567","2901 Lake Forest Dr","COLLIN","McKinney",NA,NA,100,NA,NA,100,-96.6820232,33.1745937,""
"Walgreens Pharmacy 04663","3001 Eldorado Pkwy","COLLIN","McKinney",NA,NA,NA,100,NA,100,-96.665399,33.167178,""
"Fairview Dermatology","331 Town Pl","COLLIN","McKinney",NA,300,NA,NA,NA,300,-96.6478708,33.1323695,""
"Medical Center Of Mckinney","4500 Medical Center Dr","COLLIN","McKinney",NA,NA,500,NA,NA,500,-96.6371294,33.1596558,""
"Baylor Scott and White MC Mckinney","5252 W University Dr","COLLIN","McKinney",NA,800,100,NA,100,1000,-96.6824261,33.2211103,""
"Market Street Pharmacy 561","6100 Eldorado Pkwy","COLLIN","McKinney",NA,NA,NA,100,NA,100,-96.6956184,33.1752573,""
"Tom Thumb Pharmacy 0296","6800 W Virginia Parkway","COLLIN","McKinney",NA,NA,NA,100,NA,100,-96.7065532,33.2005201,""
"BERG & MINIGUTTI PLLC","8000 ELDORADO PKWY","COLLIN","McKinney",NA,500,NA,200,NA,700,-96.7224738,33.1766132,""
"Methodist McKinney Hospital","8000 W. Eldorado Pkwy","COLLIN","McKinney",NA,NA,NA,200,100,300,-96.7224738,33.1766132,""
"Collin County Healthcare Services","825 N Mcdonald St Ste 145","COLLIN","McKinney",NA,1000,NA,NA,NA,1000,-96.6130299,33.205384,""
"Walgreens #21173","1600 COIT RD","COLLIN","Plano",NA,NA,NA,100,NA,100,-96.7669609,33.0209877,""
"City of Plano","1901 K Avenue","COLLIN","Plano",NA,NA,500,NA,NA,500,-96.7005947,33.0258342,""
"Market Street Pharmacy 566","1929 Preston Rd","COLLIN","Plano",NA,NA,NA,100,NA,100,-96.7994334,33.0258076,""
"Walgreens Pharmacy 03911","2001 Custer Rd","COLLIN","Plano",NA,NA,NA,100,NA,100,-96.7342628,33.0269773,""
"Tom Thumb Pharmacy 3645","2200 14th St","COLLIN","Plano",NA,NA,100,100,NA,200,-96.6834788,33.0167052,""
"Tom Thumb Pharmacy 2554","3100 Independence Parkway","COLLIN","Plano",NA,NA,100,100,NA,200,-96.7518587,33.0398472,""
"Kroger Pharmacy 540","3305 N. Dallas Parkway","COLLIN","Plano",NA,NA,NA,100,NA,100,-96.8321688,33.0479176,""
"The Medical Center Of Plano","3901 W 15th St","COLLIN","Plano",NA,NA,100,NA,300,400,-96.766105,33.021236,""
"Tom Thumb Pharmacy 2595","3945 Legacy Drive","COLLIN","Plano",NA,NA,200,100,NA,300,-96.7704893,33.0718659,""
"Kindred Wellbridge Plano","4301 MapleshadeLn","COLLIN","Plano",NA,NA,NA,100,NA,100,-96.7769137,33.0057507,""
"Baylor Scott & White Medical Center - Plano","4700 Alliance Blvd","COLLIN","Plano",NA,700,100,NA,1000,1800,-96.790729,33.0133231,""
"NT Preferred Health Partners Plano","4708 Dexter Drive","COLLIN","Plano",NA,100,NA,NA,NA,100,-96.7911408,33.0177428,""
"Tom Thumb Pharmacy 2570","5968 West Parker","COLLIN","Plano",NA,NA,100,NA,NA,100,-96.8284842,33.0430426,""
"Surgery Center of Texas","6020 West Plano Parkway","COLLIN","Plano",NA,NA,NA,NA,100,100,-96.831122,33.0158909,""
"Internal Medicine Associates Of Plano","6124 W Parker Rd Ste 234","COLLIN","Plano",NA,1200,NA,NA,NA,1200,-96.8362699,33.0439957,""
"Alvin R Gebert, MD, PA","6130 W Parker Rd","COLLIN","Plano",NA,100,NA,NA,NA,100,-96.8372246,33.0443397,""
"Kroger Pharmacy 522","7100 Independence Pkwy.","COLLIN","Plano",NA,NA,NA,100,NA,100,-96.7485629,33.0733868,""
"Childrens Medical Center Plano","7601 Preston Rd","COLLIN","Plano",NA,2500,200,NA,NA,2700,-96.8010024,33.0787119,""
"Md Kids Pediatrics - W Plano","7800 Preston Rd Ste 300","COLLIN","Plano",NA,200,NA,NA,NA,200,-96.7996027,33.0822867,""
"Tom Thumb Pharmacy 1788","7801 Alma","COLLIN","Plano",NA,NA,100,100,NA,200,-96.7137798,33.0833154,""
"Kroger Pharmacy 573","1250 N. Preston Road","COLLIN","Prosper",NA,NA,NA,100,NA,100,-96.7842534,33.2501634,""
"Tom Thumb Pharmacy 3641","3411 Custer Pkwy","COLLIN","Richardson",NA,NA,NA,100,NA,100,-96.7305001,32.9987198,""
"Walgreens Pharmacy 06663","4201 E Renner Rd","COLLIN","Richardson",NA,NA,NA,100,NA,100,-96.6437272,33.0021845,""
"Wylie Fire Station 3","210 N. WA Allen Blvd","COLLIN","Wylie",NA,300,NA,NA,NA,300,-96.5190172,33.0164039,""
"Kroger Pharmacy 578","2608 W Fm 544","COLLIN","Wylie",NA,NA,100,100,NA,200,-96.5754793,33.0095619,""
"SandsRx, LLC","4 Regency Dr","COLLIN","Wylie",NA,300,NA,NA,NA,300,-96.5851164,33.0097782,""
"Walgreens Pharmacy 06329","720 W Kirby St","COLLIN","Wylie",NA,NA,NA,100,NA,100,-96.5479409,33.007925,""
"Collingsworth Family Medicine","1011 15th St","COLLINGSWOR","Wellington",NA,100,NA,NA,NA,100,-100.2122066,34.8487116,""
"Collingsworth Family Medicine","1011 15th St","COLLINGSWORTH","Wellington",NA,NA,NA,NA,100,100,-100.2122066,34.8487116,""
"Columbus Community Hospital - Columbus 2","110 Shult Drive","COLORADO","Columbus",NA,100,NA,200,100,400,-96.5433977,29.6945319,""
"DSHS Columbus Clinic","1220 Bowie St","COLORADO","Columbus",NA,NA,NA,100,NA,100,-96.5421055,29.7049133,""
"Brookshires Pharmacy 79 - Canyon Lake","18275 Fm 306","COMAL","Canyon Lake",NA,200,NA,NA,NA,200,-98.2165986,29.9150754,""
"Madison D Lowry MD","1282 E Common St","COMAL","New Braunfels",NA,300,NA,NA,NA,300,-98.1048486,29.7194584,""
"Comal County Public Health Office (Re)","1297 Church Hill Drive","COMAL","New Braunfels",NA,200,NA,NA,NA,200,-98.0987515,29.7069558,""
"HEB Pharmacy 74","1655 Highway 46 West","COMAL","New Braunfels",NA,100,NA,NA,NA,100,-98.0606326,29.6781964,""
"ASPG dba CHRISTUS Promptu Urgent Care - New Braunfels","1659 W State Highway 46","COMAL","New Braunfels",NA,2000,NA,NA,NA,2000,-98.160658,29.7131574,""
"HEB Pharmacy 694","2965 N Interstate 35","COMAL","New Braunfels",NA,100,NA,NA,NA,100,-98.0780654,29.7312986,""
"Resolute Health Hospital","555 Creekside Crossing","COMAL","New Braunfels",NA,NA,NA,200,NA,200,-98.0695914,29.7206131,""
"Christus Santa Rosa Hospital New Braunfels","600 North Union Ave","COMAL","New Braunfels",NA,500,NA,NA,NA,500,-98.1231889,29.7153753,""
"Heb Pharmacy 380","651 S Walnut","COMAL","New Braunfels",NA,100,NA,NA,NA,100,-98.1260048,29.6888647,""
"New Braunfels Rural Health Clinic","705 Landa St Ste C","COMAL","New Braunfels",NA,NA,NA,200,NA,200,-98.143718,29.700785,""
"Christus Trinity Clinic Hill Country Landa","774 Landa St","COMAL","New Braunfels",NA,200,NA,NA,NA,200,-98.1458473,29.7007233,""
"Briggs Family Medicine","910 Gruene Rd","COMAL","New Braunfels",NA,100,NA,NA,NA,100,-98.1033099,29.7274708,""
"Gruene Lake Medical","948 Gruene Road","COMAL","New Braunfels",NA,NA,NA,100,NA,100,-98.1036938,29.7285707,""
"Mercy Wellness Clinic","18568 Forty Six Pkwy Ste 1001","COMAL","Spring Branch",NA,NA,NA,200,NA,200,-98.4018531,29.7986004,""
"HEB Pharmacy 622","20725 Hwy 46 West","COMAL","Spring Branch",NA,100,NA,NA,NA,100,-98.4295865,29.7963881,""
"Comanche County Medical Center","10201 Highway 16","COMANCHE","Comanche",NA,NA,300,NA,NA,300,-98.7058385,31.9235874,""
"Brookshires Pharmacy 93","400 W Central Ave","COMANCHE","Comanche",NA,100,NA,NA,NA,100,-98.6074569,31.8971732,""
"Gainesville State School","1379 Fm 678","COOKE","Gainesville",NA,NA,NA,200,NA,200,-97.0915318,33.6253892,""
"Family 1st Care","1615 Hospital Blvd Ste A","COOKE","Gainesville",NA,100,NA,500,NA,600,-97.1633276,33.6420768,""
"DSHS Gainesville","1714 Justice Center Blvd","COOKE","Gainesville",NA,NA,NA,NA,100,100,-97.1685305,33.6429811,""
"North Texas Medical Center","1900 Hospital Blvd","COOKE","Gainesville",NA,NA,NA,300,100,400,-97.162916,33.6463557,""
"Tom Thumb Pharmacy 2557","200 N Grand Ave","COOKE","Gainesville",NA,NA,NA,100,NA,100,-97.1325782,33.6250472,""
"Heb Pharmacy 668","2990 E Hwy 190","CORYELL","Copperas Cove",NA,100,NA,NA,NA,100,-97.8645099,31.1193403,""
"Heb Pharmacy 403","1207 E Main St","CORYELL","Gatesville",NA,100,NA,NA,NA,100,-97.743198,31.435454,""
"Texas Department of Criminal Justice CRAIN","1401 Sate School Rd","CORYELL","Gatesville",NA,NA,NA,100,NA,100,-97.7385936,31.4726619,""
"Coryell Health Medical Clinic","1507 W Main St","CORYELL","Gatesville",NA,300,200,NA,NA,500,-97.7803843,31.4355055,""
"Texas Department of Criminal Justice Murray","1916 N. Hwy 36 Bypass","CORYELL","Gatesville",NA,NA,NA,100,NA,100,-97.7284415,31.477928,""
"Texas Department of Criminal Justice Mt. View","2305 Ransom Road","CORYELL","Gatesville",NA,NA,NA,100,NA,100,-97.7292681,31.4855155,""
"Texas Department of Criminal Justice Hughes","3201 FM 929","CORYELL","Gatesville",NA,NA,NA,100,NA,100,-97.703025,31.4871522,""
"Crane County Rural Health Clinic","1310 S Alford St","CRANE","Crane",NA,100,NA,NA,NA,100,-102.349876,31.3897018,""
"Crosbyton Clinic Hosptital","710 W Main St","CROSBY","Crosbyton",NA,100,NA,NA,NA,100,-101.2462688,33.6607887,""
"Van Horn Rural Health Clinic","Eisenhower Rd Fm 2185","CULBERSON","Van Horn",NA,100,NA,NA,NA,100,-104.8283235,31.0496717,""
"Texas Department of Criminal Justice DALHART","11950 FM 998","DALLAM","Dalhart",NA,100,NA,NA,NA,100,-102.5618433,36.0236526,""
"Tom Thumb Pharmacy 2643","14280 Marsh Ln","DALLAS","Addison",NA,NA,NA,100,NA,100,-96.8536945,32.9384086,""
"Kroger Pharmacy 870","3770 Belt Line Rd","DALLAS","Addison",NA,NA,100,100,NA,200,-96.852773,32.9504624,""
"Kroger Pharmacy 492","11925 Elam Rd","DALLAS","Balch Springs",NA,NA,100,100,NA,200,-96.6207991,32.7203027,""
"Legent Orthopedic Hospital","1401 E Trinity Mills Rd","DALLAS","Carrollton",NA,NA,100,NA,NA,100,-96.8985178,32.9856089,""
"Vcare Clinics - Carrollton","1445 Mac Arthur Dr","DALLAS","Carrollton",NA,100,NA,NA,NA,100,-96.9233454,32.9842346,""
"Kroger Pharmacy 436","235 E Fm 1382","DALLAS","Cedar Hill",NA,NA,NA,100,NA,100,-96.9396059,32.5984409,""
"Albertsons Pharmacy 4133","427 E FM 1382","DALLAS","Cedar Hill",NA,100,NA,NA,NA,100,-96.9355322,32.5929546,""
"Tom Thumb Pharmacy 1781","106 N Denton Tap Road","DALLAS","Coppell",NA,NA,100,100,NA,200,-96.991895,32.9706941,""
"Healthcare Associates of Irving, LLP","546 E Sandy Lake Rd","DALLAS","Coppell",NA,200,NA,NA,NA,200,-96.9772057,32.9703773,""
"United Market St. Pharmacy 564","700 N Denton Tap Rd","DALLAS","Coppell",NA,NA,NA,100,NA,100,-96.9921386,32.9883034,""
"Kroger Pharmacy 448","950 E Sandy Lake Rd","DALLAS","Coppell",NA,NA,NA,100,NA,100,-96.9610094,32.9706681,""
"James Gilbert Pfister Md","10218 Midway Rd","DALLAS","Dallas",NA,NA,NA,100,NA,100,-96.8378121,32.8857035,""
"Tom Thumb Pharmacy 2544","10455 N. Central Expressway","DALLAS","Dallas",NA,NA,100,NA,NA,100,-96.7711485,32.8890914,""
"Compassion Care Clinic","1050 N Westmoreland Rd Ste 432","DALLAS","Dallas",NA,NA,NA,100,NA,100,-96.8731748,32.7552133,""
"Kroger Pharmacy 511","10677 E. Northwest Hwy","DALLAS","Dallas",NA,NA,100,100,NA,200,-96.7017357,32.8653178,""
"ProSalutem","11882 Greenville Avenue","DALLAS","Dallas",NA,NA,NA,100,NA,100,-96.7454428,32.9104286,""
"Tom Thumb Pharmacy 3597","11920 Preston Rd","DALLAS","Dallas",NA,NA,100,NA,NA,100,-96.8022825,32.9111352,""
"Medical City Heart and Spine Hospitals","11970 N Central Expy","DALLAS","Dallas",NA,300,NA,NA,NA,300,-96.7667178,32.9120385,""
"RAFAEL CANADAS, MD PA","12201 MERIT DR","DALLAS","Dallas",NA,100,NA,NA,NA,100,-96.7738677,32.9139731,""
"OAKCLIFF MEDICAL CLINIC","1401 W JEFFERSON BLVD","DALLAS","Dallas",NA,NA,NA,100,NA,100,-96.8444073,32.7446994,""
"Texas Department of Criminal Justice Hutchins","1500 E. Langdon Rd.","DALLAS","Dallas",NA,NA,NA,100,NA,100,-96.712526,32.6616591,""
"Kroger Pharmacy 689","17194 Preston Road","DALLAS","Dallas",NA,NA,100,100,NA,200,-96.8018305,32.9839422,""
"Childrens Medical Center Of Dallas","1935 Medical District Dr","DALLAS","Dallas",NA,2500,7000,1200,NA,10700,-96.837616,32.8095238,""
"LifeCare Hospital of Dallas","1950 Record Crossing","DALLAS","Dallas",NA,NA,NA,NA,200,200,-96.8487922,32.8172101,""
"Texas Scottish Rite Hospital For Children","2222 Welborn St","DALLAS","Dallas",NA,NA,200,NA,NA,200,-96.8138755,32.8022656,""
"Neighborcare Clinic","2261 Singleton Blvd Ste 101","DALLAS","Dallas",NA,100,NA,NA,NA,100,-96.8591746,32.7790861,""
"Dallas County Health And Human Services","2377 N Stemmons Fwy","DALLAS","Dallas",NA,NA,NA,NA,6000,6000,-96.8353292,32.8032555,""
"LHD Dallas County Health And Human Services (Re)","2377 N Stemmons Fwy","DALLAS","Dallas",NA,1200,NA,1200,NA,2400,-96.8353292,32.8032555,""
"Tom Thumb Pharmacy 3296","2380 N Field St","DALLAS","Dallas",NA,100,300,NA,NA,400,-96.806381,32.7893782,""
"Hampton Apothecary Lp","2701 S Hampton Rd. Ste 100","DALLAS","Dallas",NA,100,NA,NA,NA,100,-96.8575062,32.7181641,""
"Md Family Clinic - Hampton","2815 S Hampton Rd","DALLAS","Dallas",NA,500,NA,NA,NA,500,-96.8573386,32.7160658,""
"Md Family Clinic - Dallas","2959 S Buckner Blvd Ste 700","DALLAS","Dallas",NA,NA,NA,100,NA,100,-96.683239,32.7622502,""
"Bluitt-Flowers Clinic","303 E Overton Rd","DALLAS","Dallas",NA,NA,NA,NA,200,200,-96.8196085,32.7015688,""
"Tom Thumb Pharmacy 3614","315 S Hampton Rd","DALLAS","Dallas",NA,NA,100,NA,NA,100,-96.8579547,32.7426506,""
"Savon 4289","320 Casa Linda Plaza","DALLAS","Dallas",NA,NA,NA,100,NA,100,-96.6998217,32.8340827,""
"Clinicas Mi Doctor - Dallas 2","3247 Dawes Dr","DALLAS","Dallas",NA,NA,NA,100,NA,100,-96.8737398,32.7273948,""
"North Texas Preferred Health Partners - Dallas","3417 Gaston Avenue","DALLAS","Dallas",NA,100,NA,NA,NA,100,-96.7813167,32.7903447,""
"Md Kids Pediatrics - Oakcliff","3434 W Illinois Ave # 306-3","DALLAS","Dallas",NA,200,NA,NA,NA,200,NA,NA,""
"Baylor University Med Cntr Dallas","3500 Gaston Ave","DALLAS","Dallas",NA,NA,2975,NA,1000,3975,-96.7792576,32.790788,""
"Md Progressive Care","3500 Oak Lawn Ave","DALLAS","Dallas",NA,100,NA,NA,NA,100,-96.8050199,32.8119394,""
"Baylor Scott & White Pharmacy #101","3600 Gaston Avenue","DALLAS","Dallas",NA,900,NA,NA,NA,900,-96.7797246,32.7910016,""
"Highrise Health Pllc Dba Vertical Healthcare","3624 Oak Lawn Avenue","DALLAS","Dallas",NA,NA,NA,100,NA,100,-96.803744,32.8130797,""
"Tom Thumb Pharmacy 1540","3757 Forest Ln","DALLAS","Dallas",NA,NA,NA,100,NA,100,-96.8529798,32.9107958,""
"Harrell A Grand MD","3801 Gaston Ave","DALLAS","Dallas",NA,NA,NA,100,NA,100,-96.7794216,32.7924372,""
"Kroger Pharmacy 528","4142 Cedar Springs Rd","DALLAS","Dallas",NA,NA,300,NA,NA,300,-96.8121409,32.8133582,""
"Kroger Pharmacy 529","4241 Capitol Ave","DALLAS","Dallas",NA,NA,100,NA,NA,100,-96.7889715,32.8066446,""
"Md Kids Pediatrics - Cockrell Hill","4351 Dfw Turnpike Ste","DALLAS","Dallas",NA,200,NA,NA,NA,200,-96.8981069,32.7686316,""
"Hatcher Station Health Center","4600 Scyene Rd","DALLAS","Dallas",NA,NA,NA,NA,100,100,-96.7412378,32.7668509,""
"Highland Park Emergency Center, LLC","5150 Lemmon Ave.","DALLAS","Dallas",NA,NA,NA,100,NA,100,-96.8199363,32.8251403,""
"Parkland Occupational Health Services","5201 Harry Hines Blvd","DALLAS","Dallas",NA,2500,NA,1000,NA,3500,-96.8376553,32.810536,""
"Kroger Pharmacy 518","5665 E Mockingbird Ln","DALLAS","Dallas",NA,NA,NA,100,NA,100,-96.7709848,32.8384132,""
"Tom Thumb Pharmacy 2642","5809 E Lovers Ln","DALLAS","Dallas",NA,NA,100,100,NA,200,-96.7671327,32.852128,""
"Dougherty's Pharmacy","5959 Royal Ln Ste 515","DALLAS","Dallas",NA,NA,NA,100,NA,100,-96.8056247,32.8960989,""
"Doughertys Pharmacy","5959 Royal Ln Ste 515","DALLAS","Dallas",NA,500,NA,NA,NA,500,-96.8056247,32.8960989,""
"Tom Thumb Pharmacy 2534","6333 East Mockingbird Lane","DALLAS","Dallas",NA,NA,100,100,NA,200,-96.754334,32.8376449,""
"Kay Bailey Hutchinson Convention Center","650 S Griffin Street","DALLAS","Dallas",NA,2000,NA,NA,NA,2000,-96.8017317,32.7739262,""
"Walgreens Pharmacy 21222","6520 E NORTHWEST HIGHWAY","DALLAS","Dallas",NA,NA,NA,100,NA,100,-96.7482998,32.8560435,""
"Md Kids Pediatrics - Dallas","655 W Illinois Ave Ste 916","DALLAS","Dallas",NA,200,NA,NA,NA,200,-96.83376,32.72249,""
"Park Cities Surgery Center","6901 Snider Plz","DALLAS","Dallas",NA,200,NA,NA,NA,200,-96.7883098,32.8496638,""
"Dallas Medical Center","7 Medical Parkway","DALLAS","Dallas",NA,200,200,NA,NA,400,-96.8699913,32.9154581,""
"Tom Thumb Pharmacy 1973","7000 Snider Plz","DALLAS","Dallas",NA,NA,100,NA,NA,100,-96.7872519,32.8505083,""
"Tom Thumb Pharmacy 2990","7117 Inwood Rd","DALLAS","Dallas",NA,NA,100,100,NA,200,-96.8226218,32.8444624,""
"Kroger Pharmacy 213","752 Wynnewood Village Shp Ctr","DALLAS","Dallas",NA,NA,100,100,NA,200,-96.8327759,32.7258176,""
"Heavenly Hands Family Medical Clinic Pllc","7602 Great Trinity Forest Way","DALLAS","Dallas",NA,NA,NA,100,NA,100,-96.6912575,32.712311,""
"Tom Thumb Pharmacy 3608","7700 N. W. Hwy.","DALLAS","Dallas",NA,NA,100,NA,NA,100,-96.7280269,32.8565983,""
"Lake June Medical Clinic","7716 Lake June Rd","DALLAS","Dallas",NA,NA,NA,100,NA,100,-96.6893551,32.7339871,""
"Medical City Dallas Hospital","7777 Forest Lane","DALLAS","Dallas",NA,NA,100,NA,NA,100,-96.7744115,32.9126714,""
"Ahf Pharmacy","7777 Forest Lane.","DALLAS","Dallas",NA,NA,NA,100,NA,100,-96.7744115,32.9126714,""
"Internal Medicine Associates Of Texas","7777 Forest Ln Ste C650","DALLAS","Dallas",NA,NA,NA,100,NA,100,-96.7723028,32.910392,""
"Medical City Green Oaks Hospital","7808 Clodus Fields Dr","DALLAS","Dallas",NA,100,200,NA,NA,300,-96.7720329,32.9130884,""
"Parkland Employee Physicians Office","7920 Elmbrook Dr Ste 120","DALLAS","Dallas",NA,2500,NA,NA,NA,2500,-96.8624841,32.819308,""
"Kindred Hospital Dallas Central","8050 Meadow Rd","DALLAS","Dallas",NA,NA,200,NA,100,300,-96.7673833,32.8869275,""
"First Baptist Medical Center Dallas","8111 Meadow Road","DALLAS","Dallas",NA,NA,100,NA,NA,100,-96.7666296,32.8884576,""
"Clinica Mi Doctor","8112 Spring Valley Rd","DALLAS","Dallas",NA,500,NA,NA,NA,500,-96.7661396,32.9389611,""
"HealthCore Physicians Group","8210 Walnut Hill Ln, Suite 230","DALLAS","Dallas",NA,200,NA,NA,NA,200,-96.7610675,32.8819973,""
"Md Kids Pediatrics - Lake Highlands","8330 Abrams","DALLAS","Dallas",NA,200,NA,NA,NA,200,-96.7390107,32.893699,""
"Healing Hands Ministries","8515 Greenville Ave Ste N-112","DALLAS","Dallas",NA,100,NA,NA,NA,100,-96.754334,32.8946472,""
"Tom Thumb Pharmacy 3560","8698 Skillman St","DALLAS","Dallas",NA,NA,100,NA,NA,100,-96.7217632,32.8962706,""
"Kroger Pharmacy 588","9140 Forest Ln","DALLAS","Dallas",NA,NA,NA,100,NA,100,-96.7452266,32.9082048,""
"North Texas Endocrine Center","9301 N.Central Expressway","DALLAS","Dallas",NA,NA,100,NA,NA,100,-96.7711485,32.8750626,""
"City Hospital At White Rock","9440 Poppy Dr","DALLAS","Dallas",NA,500,NA,NA,NA,500,-96.7049198,32.8344239,""
"Md Family Clinic","9709 Bruton Rd","DALLAS","Dallas",NA,500,NA,NA,NA,500,-96.6551794,32.7490929,""
"Md Family Marsh - Dallas - 9991 Marsh Ln","9991 Marsh Ln","DALLAS","Dallas",NA,500,NA,300,NA,800,-96.8566637,32.8800046,""
"Kroger Pharmacy 545","1001 N. Beckley, Ste. 500","DALLAS","Desoto",NA,NA,NA,100,NA,100,-96.8226177,32.6068135,""
"Tom Thumb Pharmacy 3623","210 E Pleasant Run Rd","DALLAS","Desoto",NA,NA,100,100,NA,200,-96.8559906,32.6029703,""
"Kroger Pharmacy 527","200 W Camp Wisdom Rd","DALLAS","Duncanville",NA,NA,NA,100,NA,100,-96.9093422,32.6605563,""
"Tom Thumb Pharmacy 3563","633 W Wheatland Rd","DALLAS","Duncanville",NA,NA,100,100,NA,200,-96.9227583,32.6482198,""
"Farmers Branch Fire Department","13333 Hutton Dr","DALLAS","Farmers Branch",NA,100,NA,NA,NA,100,-96.9132829,32.9232971,""
"Kroger Pharmacy 559","1406 W Walnut St","DALLAS","Garland",NA,NA,100,100,NA,200,-96.6501152,32.9152243,""
"Lhd Garland (City Of) Health Dept (Re)","206 Carver Dr","DALLAS","Garland",NA,900,100,NA,NA,1000,-96.6284277,32.9068416,""
"Tom Thumb Pharmacy 2578","2535 N.E. Parkway","DALLAS","Garland",NA,200,100,NA,NA,300,-96.6055302,32.9374777,""
"Patient Place - Garland 1","2636 W Walnut St Ste 100","DALLAS","Garland",NA,NA,NA,100,NA,100,-96.6687398,32.9161198,""
"Tom Thumb Pharmacy 1783","2645 Arapaho","DALLAS","Garland",NA,NA,100,100,NA,200,-96.6669025,32.9608694,""
"Md Kids Pediatrics - Garland","3050 S 1st St Ste 209","DALLAS","Garland",NA,200,NA,NA,NA,200,-96.6291794,32.8797759,""
"Garland Independent Pharmacy","3641 Broadway Blvd","DALLAS","Garland",NA,NA,NA,100,NA,100,-96.611898,32.8699472,""
"Kroger Pharmacy 403","532 W Interstate 30","DALLAS","Garland",NA,NA,100,100,NA,200,-96.5967946,32.8376057,""
"Savon 4265","5710 Broadway Blvd","DALLAS","Garland",NA,NA,NA,100,NA,100,-96.5938556,32.8461134,""
"Kroger Pharmacy 557","6850 North Shiloh Road","DALLAS","Garland",NA,NA,NA,100,NA,100,-96.6639791,32.9774097,""
"Garland Health Center","802 Hopkins St","DALLAS","Garland",NA,NA,NA,100,NA,100,-96.6281147,32.9059157,""
"Tom Thumb Pharmacy 2561","925 Northwest Hwy","DALLAS","Garland",NA,NA,100,100,NA,200,-96.642767,32.8630014,""
"Kroger Pharmacy 191","313 E Pioneer Pkwy","DALLAS","Grand Prairie",NA,NA,100,100,NA,200,-97.0010476,32.7082388,""
"Mi Doctor #13 Grand Prairie","410 E Pioneer Pkwy Ste 300","DALLAS","Grand Prairie",NA,NA,NA,100,NA,100,-97.0005168,32.7100357,""
"Tom Thumb Pharmacy 1786","4215 S Carrier Pkwy","DALLAS","Grand Prairie",NA,NA,100,100,NA,200,-97.0039845,32.6711211,""
"Purple Hearts Primary Care Services, PLLC","688 W. Pioneer Pkwy","DALLAS","Grand Prairie",NA,1800,NA,NA,NA,1800,-97.013431,32.7106808,""
"Md Kids Pediatrics Macarthur - Irving","1111 W Airport Fwy","DALLAS","Irving",NA,200,NA,NA,NA,200,-96.959875,32.8384712,""
"Texas Oncology Irving","2021 N Macarthur Blvd Ste 400","DALLAS","Irving",NA,NA,300,NA,NA,300,-96.9620871,32.8350497,""
"Kroger Pharmacy 429","2201 W Grauwyler Rd","DALLAS","Irving",NA,NA,100,100,NA,200,-96.974689,32.8294169,""
"Irving Regional Dialysis Center","2535 W Airport Freeway","DALLAS","Irving",NA,NA,NA,100,NA,100,-96.9808987,32.8385437,""
"Healthcare Associates of Irving, LLP","3501 N MacArthur Blvd","DALLAS","Irving",NA,100,NA,NA,NA,100,-96.9599366,32.8525721,""
"Kroger Pharmacy 402","3612 N Belt Line Rd","DALLAS","Irving",NA,NA,100,100,NA,200,-96.9908876,32.8550843,""
"Tom Thumb Pharmacy 3621","4010 N Macarthur Blvd Ste 10","DALLAS","Irving",NA,NA,100,100,NA,200,-96.9574026,32.8598445,""
"Kroger Pharmacy 495","515 S Macarthur Blvd","DALLAS","Irving",NA,NA,100,100,NA,200,-96.9608416,32.8092269,""
"Healthcare Associates Of Irving","6161 N State Highway 161","DALLAS","Irving",NA,200,NA,NA,NA,200,-96.9807309,32.8916803,""
"Las Colinas Pharmacy","6420 N. MacArthurBlvd","DALLAS","Irving",NA,NA,NA,100,NA,100,-96.9575693,32.8964772,""
"USMD Las Colinas","6750 N. MacArthur Blvd","DALLAS","Irving",NA,500,NA,NA,NA,500,-96.9568635,32.9017304,""
"Medical City Las Colinas","6800 N Macarthur Blvd","DALLAS","Irving",NA,700,100,NA,NA,800,-96.9573714,32.9020425,""
"Kroger Pharmacy 577","7505 N Macarthur Blvd","DALLAS","Irving",NA,NA,100,100,NA,200,-96.96103,32.9087884,""
"Gibson Pharmacy","815 N OCONNOR RD","DALLAS","Irving",NA,NA,NA,100,NA,100,-96.9499053,32.8220433,""
"Christus Health Clinic- Irving - 9521","919 Hidden Ridge","DALLAS","Irving",NA,NA,100,NA,NA,100,-96.9605902,32.8781025,""
"Crescent Medical Center Lancaster","2600 W Pleasant Run Rd","DALLAS","Lancaster",NA,NA,NA,200,NA,200,-96.812489,32.6030305,""
"Dallas Regional Medical Center","1011 N Galloway Ave","DALLAS","Mesquite",NA,500,300,NA,NA,800,-96.6004473,32.7784533,""
"Salma Mazhar MD PA","1210 N. Galloway Ave","DALLAS","Mesquite",NA,300,NA,NA,NA,300,-96.5999258,32.7799513,""
"Regional Dialysis Center of Mesquite","1650 Republic Pkwy","DALLAS","Mesquite",NA,NA,NA,100,NA,100,-96.6240661,32.8281994,""
"Vital Family Practice Center","1900 Oates Dr","DALLAS","Mesquite",NA,500,NA,NA,NA,500,-96.6296591,32.8355368,""
"Kroger Pharmacy 893","1919 Faithon P. Lucas Blvd","DALLAS","Mesquite",NA,NA,100,NA,NA,100,-96.5537362,32.7445519,""
"Kroger Pharmacy 450","3600 Gus Thomasson Road","DALLAS","Mesquite",NA,NA,100,100,NA,200,-96.6332489,32.8138488,""
"Kroger Texas LP","525 N Galloway","DALLAS","Mesquite",NA,NA,NA,100,NA,100,-96.6005307,32.7716889,""
"Tom Thumb Pharmacy 2526","#39 Arapaho Village S.C.","DALLAS","Richardson",NA,NA,100,100,NA,200,NA,NA,""
"Comprehensive Orthopedics and Rehabilitation PA","1120 W. Campbell Rd","DALLAS","Richardson",NA,500,NA,NA,NA,500,-96.7598129,32.978874,""
"Tom Thumb Pharmacy 3637","1380 W Campbell Rd","DALLAS","Richardson",NA,NA,NA,100,NA,100,-96.7669654,32.979932,""
"Kroger Pharmacy 517","160 N. Coit","DALLAS","Richardson",NA,NA,NA,100,NA,100,-96.7673,32.9532814,""
"Richardson Fire Department","300 N. Greenville Ave.","DALLAS","Richardson",NA,NA,NA,200,NA,200,-96.7282426,32.9503962,""
"Kroger Pharmacy 526","536 Centennial Blvd","DALLAS","Richardson",NA,NA,NA,100,NA,100,-96.7203002,32.9374159,""
"Healthcare Associates of Irving LLP","7501 Lakeview Pkwy","DALLAS","Rowlett",NA,200,NA,NA,NA,200,-96.5290599,32.912573,""
"Kroger Pharmacy 461","5190 Highway 78","DALLAS","Sachse",NA,NA,100,100,NA,200,-96.6040354,32.9695532,""
"Christus Santa Rosa Hospital - Westover Hills","11212 Tx-151","DALLAS","San Antonio",NA,NA,3625,NA,NA,3625,-98.6969456,29.4668422,""
"Brookshires Pharmacy 106","125 Hall Rd","DALLAS","Seagoville",NA,100,NA,NA,NA,100,-96.5486084,32.6497928,""
"Baylor Scott & White Medical Center Sunnyvale","231 S Collins Rd","DALLAS","Sunnyvale",NA,400,100,NA,NA,500,-96.5692005,32.7789657,""
"BELTLINE SURGERY CENTER","2858 N. BELTLINE ROAD","DALLAS","Sunnyvale",NA,NA,NA,100,NA,100,-96.5951071,32.8038395,""
"Christus Trinity Clinic- Richmond Road Texarkana","3502 Richmond Rd","DALLAS","Texarkana",NA,500,NA,NA,NA,500,-94.0953834,33.4689395,""
"Texas Department of Criminal Justice SMITH","1313 County Road 19","DAWSON","Lamesa",NA,100,NA,NA,NA,100,-101.9781052,32.7188585,""
"Dawson County Hospital District","2200 North Bryan Avenue","DAWSON","Lamesa",NA,NA,100,100,100,300,-101.9673069,32.7491971,""
"Cuero Regional Hospital","2550 N. Esplanade","DE WITT","Cuero",NA,200,NA,NA,NA,200,-97.2833036,29.112434,""
"HEB Pharmacy 712","909 E Broadway St","DE WITT","Cuero",NA,100,NA,NA,NA,100,-97.2806287,29.0896192,""
"Deaf Smith County Hospital District Employee Health","540 W 15th St","DEAF SMITH","Hereford",NA,NA,300,NA,NA,300,-102.4138799,34.8395595,""
"Hereford Health Clinic","540 W 15th St","DEAF SMITH","Hereford",NA,200,300,NA,NA,500,-102.4138799,34.8395595,""
"HEREFORD PHARMACY","809 S 25 MILE AVE","DEAF SMITH","Hereford",NA,NA,NA,100,NA,100,-102.4060455,34.8204544,""
"Kroger Pharmacy 572","3400 Fm 407 E.","DENTON","Argyle",NA,NA,100,100,NA,200,-97.1298806,33.0754362,""
"Wise Health Surgical Hospital at Argyle","7218 Crawford Rd","DENTON","Argyle",NA,200,NA,NA,NA,200,-97.2045843,33.1318877,""
"Walgreens Pharmacy 11567","26731 Us Highway 380 E","DENTON","Aubrey",NA,NA,NA,100,NA,100,-96.9365966,33.2215821,""
"Aubrey Pharmacy","701 S Highway 377","DENTON","Aubrey",NA,100,NA,100,NA,200,-96.9829124,33.2983609,""
"Healthcare Associates of Irving, LLP","8700 US Hwy 380","DENTON","Aubrey",NA,100,NA,NA,NA,100,-96.9951283,33.2286405,""
"Precision Family Medicine","1428 W Hebron Pkwy","DENTON","Carrollton",NA,NA,NA,100,NA,100,-96.9303481,33.0218012,""
"Walgreens Pharmacy 04014","1804 E Hebron Pkwy","DENTON","Carrollton",NA,NA,NA,100,NA,100,-96.8862919,33.0241226,""
"Walgreens Pharmacy 10816","1919 E Frankford Rd","DENTON","Carrollton",NA,NA,NA,100,NA,100,-96.8857867,33.0006728,""
"Carrollton Springs","2225 Parker Rd","DENTON","Carrollton",NA,NA,NA,NA,400,400,-96.8684817,33.0458798,""
"Select Specialty Hospital Dallas Inc","2329 W. Parker Rd","DENTON","Carrollton",NA,200,100,NA,NA,300,-96.8647765,33.0457297,""
"Trinity Apothecary","2501 E. Hebron Pkwy, Suite 100B","DENTON","Carrollton",NA,100,NA,NA,NA,100,-96.8589723,33.0247381,""
"Md Kids Pediatrics Carrolton","3044 Old Denton Rd Ste 138","DENTON","Carrollton",NA,200,NA,NA,NA,200,-96.9076653,32.9978004,""
"Kroger Pharmacy 460","4038 Old Denton Rd","DENTON","Carrollton",NA,NA,100,100,NA,200,-96.9138698,33.0193449,""
"Tom Thumb Pharmacy 2590","4112 N. Josey","DENTON","Carrollton",NA,NA,NA,100,NA,100,-96.8831886,33.0233172,""
"Walgreens Pharmacy 04013","18207 Midway Rd","DENTON","Dallas",NA,NA,NA,100,NA,100,-96.844564,32.9976858,""
"Kroger Pharmacy 587","3939 Frankford Rd","DENTON","Dallas",NA,NA,100,100,NA,200,-96.8460808,32.9984698,""
"Walgreens Pharmacy 05161","101 W University Dr","DENTON","Denton",NA,NA,NA,100,NA,100,-97.132867,33.2303516,""
"Md Family Clinic - Denton","1306 Teasley Ln","DENTON","Denton",NA,500,NA,NA,NA,500,-97.1221617,33.2005516,""
"Kroger Pharmacy 586","1592 S Loop 288","DENTON","Denton",NA,NA,200,100,NA,300,-97.0957352,33.1952171,""
"Horizon Medical Center","2813 South Mayhill Road","DENTON","Denton",NA,100,100,NA,NA,200,-97.0869774,33.1742689,""
"Community Pharmacy","3001 Fm 2181","DENTON","Denton",NA,NA,NA,100,NA,100,-97.0641714,33.1307283,""
"Family Healthcare - Denton","3105 Colorado Blvd","DENTON","Denton",NA,NA,NA,200,NA,200,-97.0983001,33.1829752,""
"Medical City Denton","3535 South I35 East","DENTON","Denton",NA,1300,200,NA,NA,1500,-97.091217,33.1778917,""
"Denton State Supported Living Center","3980 State School Rd","DENTON","Denton",NA,NA,400,NA,NA,400,-97.0901131,33.1633545,""
"Kroger Pharmacy 493","500 W University Dr","DENTON","Denton",NA,NA,100,100,NA,200,-97.1377044,33.2320388,""
"Walgreens 11515","5000 Teasley Ln","DENTON","Denton",NA,NA,NA,100,NA,100,-97.1056696,33.146874,""
"Kroger Pharmacy 570","5021 Teasley Ln","DENTON","Denton",NA,NA,100,100,NA,200,-97.1026418,33.1457308,""
"Denton County Public Health - Denton","535 S. Loop 288","DENTON","Denton",NA,1000,NA,NA,NA,1000,-97.0897852,33.2038117,""
"Texas Woman's University","604 Administration Drive","DENTON","Denton",NA,2100,NA,NA,NA,2100,-97.1290433,33.2269608,""
"Walgreens Pharmacy 04171","2050 Long Prairie Rd","DENTON","Flower Mound",NA,NA,NA,100,NA,100,-97.0700786,33.0131303,""
"Kroger Pharmacy 456","2709 Cross Timbers Road","DENTON","Flower Mound",NA,NA,NA,100,NA,100,-97.0719875,33.0358208,""
"ClearSky Rehabilitation Hospital of Flower Mound","3100 Peters Colony Road","DENTON","Flower Mound",NA,NA,100,NA,NA,100,-97.0771568,33.0353088,""
"Flower Mound Fire Department","3911 S. Broadway Ave","DENTON","Flower Mound",NA,500,NA,NA,NA,500,-97.0638353,33.0382079,""
"Tom Thumb Pharmacy 1854","4301 Cross Timbers Rd","DENTON","Flower Mound",NA,NA,100,100,NA,200,-97.0972491,33.0405549,""
"iCare Emergency Center","2955 Eldorado Pkwy","DENTON","Frisco",NA,NA,NA,100,NA,100,-96.8639991,33.1777207,""
"Baylor Scott White Institute Rehabilation Frisco","2990 Legacy Drive","DENTON","Frisco",NA,NA,300,NA,NA,300,-96.8399012,33.1031899,""
"Walgreens Pharmacy 07645","3030 Main St","DENTON","Frisco",NA,NA,NA,100,NA,100,-96.864837,33.1538965,""
"Kroger Pharmacy 547","3205 Main St","DENTON","Frisco",NA,NA,NA,100,NA,100,-96.8634545,33.1526175,""
"Baylor Surgicare at Blue Star LLC","3800 Gaylord Parkway","DENTON","Frisco",NA,NA,NA,NA,100,100,-96.8258884,33.1101244,""
"West Frisco Health And Wellness","4280 Main Street","DENTON","Frisco",NA,500,NA,NA,NA,500,-96.850595,33.1539812,""
"Tom Thumb Pharmacy 2963","5550 F.M. 423","DENTON","Frisco",NA,NA,NA,100,NA,100,-96.888774,33.1254599,""
"Driven MD, PLLC","8501 Wade Blvd","DENTON","Frisco",NA,200,NA,NA,NA,200,-96.8093109,33.1286995,""
"Walgreens Pharmacy 04587","2360 Justin Rd","DENTON","Highlands",NA,NA,NA,100,NA,100,-97.0613483,33.0729507,""
"Tom Thumb Pharmacy 1785","1075 W Round Grove Rd","DENTON","Lewisville",NA,NA,100,100,NA,200,-97.0170841,33.0067556,""
"Walgreens Pharmacy 05960","1103 W Round Grove Rd","DENTON","Lewisville",NA,NA,NA,100,NA,100,-97.0198024,33.0068882,""
"Highland Village Fire Department","1200 Highland Village Rd","DENTON","Lewisville",NA,NA,NA,100,NA,100,-97.0542555,33.0842438,""
"Denton County Public Health","190 N. Valley Pkwy.","DENTON","Lewisville",NA,NA,NA,NA,3500,3500,-97.0211572,33.0445556,""
"Denton County Public Health Lewisville","190 N. Valley Pkwy.","DENTON","Lewisville",NA,NA,100,NA,NA,100,-97.0211572,33.0445556,""
"Kroger Pharmacy 599","4620 State Highway 121","DENTON","Lewisville",NA,NA,NA,100,NA,100,-96.8893907,33.0623612,""
"Medical Center Of Lewisville","500 W Main St","DENTON","Lewisville",NA,600,NA,100,NA,700,-97.0046562,33.0452646,""
"Mi Doctor - Lewisville","701 S Stemmons Fwy Ste 260","DENTON","Lewisville",NA,NA,NA,100,NA,100,-97.0043365,33.0381207,""
"Kroger Pharmacy 580","2671 Little Elm Pkwy","DENTON","Little Elm",NA,NA,100,100,NA,200,-96.8913373,33.1704644,""
"Walgreens Pharmacy 11320","2774 E Eldorado Pkwy","DENTON","Little Elm",NA,NA,NA,100,NA,100,-96.8881473,33.1777804,""
"Brookshires Pharmacy 109 - Pilot Point","750 S Highway 377","DENTON","Pilot Point",NA,200,NA,100,NA,300,-96.952703,33.3898388,""
"Kroger Pharmacy 589","4650 W University Dr","DENTON","Prosper",NA,NA,100,100,NA,200,-96.8776574,33.2200494,""
"Tom Thumb Pharmacy 1789","101 Trophy Lake Dr","DENTON","Roanoke",NA,NA,100,100,NA,200,-97.2052124,33.0001486,""
"A&P Pharmacy DBA Roanoke Pharmacy","207 E Byron Nelson Blvd","DENTON","Roanoke",NA,NA,NA,100,NA,100,-97.2246272,33.0039708,""
"The Colony ER Hospital","4780 State Hwy 121","DENTON","The Colony",NA,NA,100,NA,NA,100,-96.8852838,33.0661757,""
"Walgreens Pharmacy 04719","5297 State Highway 121","DENTON","The Colony",NA,NA,NA,100,NA,100,-96.8772384,33.0729199,""
"Kroger Pharmacy 879","6805 N Main","DENTON","The Colony",NA,NA,100,100,NA,200,-96.8937493,33.097467,""
"Cuero-Dewitt County Health Department","115 N Gonzales St Ste B","DEWITT","Cuero",NA,NA,100,NA,NA,100,-97.2896927,29.0905279,""
"UT Health Henderson Hospital","300 Wilson St","DEWITT","Henderson",NA,NA,NA,NA,100,100,-94.7955386,32.1611314,""
"Heb Pharmacy 671","2030 N 1st St","DIMMIT","Carrizo Springs",NA,100,NA,NA,NA,100,-99.8519082,28.5363194,""
"Dimmit Regional Hospital dba Luevano Health Care","504 Hospital Drive","DIMMIT","Carrizo Springs",NA,NA,NA,100,NA,100,-99.8621936,28.5198029,""
"Dimmit Regional Hospital","704 Hospital Dr","DIMMIT","Carrizo Springs",NA,NA,200,NA,NA,200,-99.8633349,28.5193252,""
"Clarendon Family Medical Center","1 Medical Center Drive","DONLEY","Clarendon",NA,NA,NA,100,NA,100,-100.8976869,34.9454381,""
"SAN DIEGO PHARMACY","500 S Dr EE Dunlap st","DUVAL","San Diego",NA,100,NA,NA,NA,100,-98.242085,27.7554607,""
"Brookshires Pharmacy 99","1010 Avenue E","EASTLAND","Cisco",NA,100,NA,NA,NA,100,-98.9792289,32.3855722,""
"Eastland Memorial Hospital","Po Box 897","EASTLAND","Eastland",NA,NA,300,NA,100,400,-98.8175623,32.4015198,""
"Albertsons Pharmacy 677","1350 E 8th St","ECTOR","Odessa",NA,NA,NA,200,NA,200,-102.3558792,31.8577852,""
"Lhd Ector County Health Department (Re)","221 N Texas Ave","ECTOR","Odessa",NA,NA,NA,200,500,700,-102.3673739,31.846802,""
"HEB Pharmacy 711","2501 W University Blvd","ECTOR","Odessa",NA,100,NA,NA,NA,100,-102.4119101,31.8604964,""
"Odessa Emergency Center, LLC","2731 N Grandview Ave","ECTOR","Odessa",NA,NA,NA,NA,100,100,-102.348401,31.8772962,""
"Albertsons Pharmacy 676","2751 N County Rd W","ECTOR","Odessa",NA,NA,NA,100,NA,100,-102.3981221,31.8658831,""
"Heb Pharmacy 387","3801 E 42nd St","ECTOR","Odessa",NA,100,NA,NA,NA,100,-102.3510174,31.8914339,""
"Medical Center Hospital","400 W 4th","ECTOR","Odessa",NA,2500,NA,NA,NA,2500,-102.3725423,31.8458538,""
"Odessa Consultants","420 E 6th St Ste 107","ECTOR","Odessa",NA,500,NA,NA,NA,500,-102.365393,31.8510865,""
"Market Street Pharmacy 675","4950 E 42nd St","ECTOR","Odessa",NA,NA,NA,100,NA,100,-102.3343971,31.8917579,""
"Odessa Regional Medical Center","520 E 6th St","ECTOR","Odessa",NA,400,800,300,100,1600,-102.3655556,31.8510859,""
"HEB Pharmacy 700","540 W 5th Street","ECTOR","Odessa",NA,100,NA,NA,NA,100,-102.3749158,31.8463656,""
"Sunflower Rx","700 N Grant Ave Ste 150","ECTOR","Odessa",NA,NA,NA,100,NA,100,-102.3708328,31.8506251,""
"Texas Tech Health Science Center","701 W 5th St Ste 1111","ECTOR","Odessa",NA,200,NA,NA,NA,200,-102.3914749,31.8381483,""
"Texas Tech Health Sciences Center","800 West 5th Street","ECTOR","Odessa",NA,NA,NA,300,NA,300,-102.3769471,31.8445704,""
"Del Sol Campus Of Lpds","10301 Gateway Blvd W","EL PASO","El Paso",NA,NA,300,1000,NA,1300,-106.3495064,31.756534,""
"Helena H. Liptakova Md Pllc","10870 Gateway Blvd N Ste B","EL PASO","El Paso",NA,300,NA,NA,NA,300,-106.4305111,31.9268932,""
"Ysleta Health Center El Paso Dph","110 Candelaria St","EL PASO","El Paso",NA,300,NA,NA,NA,300,-106.3256388,31.6914482,""
"Walgreens Pharmacy 06542","1100 Geronimo Dr","EL PASO","El Paso",NA,NA,NA,100,NA,100,-106.4066342,31.7826965,""
"Savon 2016","11320 MONTWOOD DR","EL PASO","El Paso",NA,NA,NA,100,NA,100,-106.30205,31.7672583,""
"Pediatric Group Of Central El Paso - Zaragoza","1512 N Zaragoza Rd Ste A1","EL PASO","El Paso",NA,500,NA,NA,NA,500,-106.2891761,31.7391477,""
"Umc Nhc East","1521 Joe Battle Blvd.","EL PASO","El Paso",NA,500,NA,600,NA,1100,-106.2690431,31.7376463,""
"Md Kids Pediatrics Lomaland","1570 Lomaland Dr Ste A","EL PASO","El Paso",NA,200,NA,NA,NA,200,-106.3280301,31.7561907,""
"Immunize El Paso Eastside","1580 George Dieter Dr Ste 103","EL PASO","El Paso",NA,2000,NA,NA,NA,2000,-106.3003947,31.7503268,""
"El Paso Wellness Associates, LLC","1600 N Lee Trevino","EL PASO","El Paso",NA,NA,NA,100,NA,100,-106.3181894,31.7573072,""
"The Hospitals Of Providence Sierra Campus","1625 Medical Center Dr","EL PASO","El Paso",NA,700,100,NA,NA,800,-106.4808963,31.7776439,""
"Kindred Hospital El Paso","1740 Curie Drive","EL PASO","El Paso",NA,200,NA,NA,NA,200,-106.4772147,31.7788237,""
"Las Palmas Medical Center","1801 N Oregon St","EL PASO","El Paso",NA,NA,200,1100,NA,1300,-106.4990287,31.7699621,""
"Pediatric Group Of Central El Paso - Gus Rallis","181 Gus Rallis Dr","EL PASO","El Paso",NA,NA,NA,100,NA,100,-106.5827386,31.8630254,""
"Centro De Salud Lisbon","200 Lisbon Street","EL PASO","El Paso",NA,NA,NA,100,NA,100,-106.4243461,31.7667273,""
"The Hospitals Of Providence Transmountain Campus","2000 Transmountain Road","EL PASO","El Paso",NA,400,NA,NA,NA,400,-106.5650364,31.9053405,""
"The Hospitals of Providence Memorial Campus","2001 N Oregon St","EL PASO","El Paso",NA,NA,300,NA,NA,300,-106.5007988,31.7699879,""
"Dept Public Health-Stanton","220 S. Stanton","EL PASO","El Paso",NA,300,NA,NA,NA,300,-106.4850611,31.7569486,""
"Albertsons Pharmacy","2200 N Yarbrough","EL PASO","El Paso",NA,NA,NA,200,NA,200,-106.3377332,31.7729727,""
"EP FAMILY DOCTOR","2270 Joe Battle Suite M-N","EL PASO","El Paso",NA,500,NA,NA,NA,500,-106.2666948,31.7837027,""
"Umc El Paso Clinic Ysleta","300 S Zaragoza Rd","EL PASO","El Paso",NA,500,NA,600,NA,1100,-106.3305133,31.6874305,""
"City of El Paso Fire Department","301 George Perry","EL PASO","El Paso",NA,NA,NA,1000,NA,1000,-106.3674958,31.8148414,""
"El Paso Fire Department","301 George Perry","EL PASO","El Paso",NA,NA,NA,NA,5000,5000,-106.3674958,31.8148414,""
"Savon 1936","3100 MESA ST","EL PASO","El Paso",NA,NA,NA,200,NA,200,-106.5040913,31.7804537,""
"Sun City Emergency Room","351 E. Redd Road","EL PASO","El Paso",NA,NA,NA,100,NA,100,-106.5785259,31.8641712,""
"Project Vida Nafzger Health Clinic","3612 Pera Ave","EL PASO","El Paso",NA,NA,100,NA,NA,100,-106.4502956,31.7720428,""
"Texas Department of Criminal Justice SANCHEZ","3901 State Jail Road","EL PASO","El Paso",NA,NA,NA,100,NA,100,-106.2517745,31.8135294,""
"Galo A Rodarte Md Pa","400 E Robinson Ave","EL PASO","El Paso",NA,NA,NA,200,NA,200,-106.5004638,31.777302,""
"El Paso Psychiatric Center","4615 Alameda Ave","EL PASO","El Paso",NA,200,100,NA,NA,300,-106.4362332,31.7720265,""
"Pediatric Group Of Central El Paso - 4659 Cohen","4659 Cohen Ave Unit B","EL PASO","El Paso",NA,NA,NA,100,NA,100,-106.4359402,31.8932364,""
"El Paso Children's Hospital","4845 Alameda Ave","EL PASO","El Paso",NA,700,NA,700,NA,1400,-106.4339697,31.7715186,""
"El Paso Drive Iz Clinic El Paso Dph","5115 El Paso Dr","EL PASO","El Paso",NA,NA,NA,100,NA,100,-106.4293609,31.7709562,""
"Savon 1006","5200 MONTANA AVE","EL PASO","El Paso",NA,NA,NA,200,NA,200,-106.4264164,31.782424,""
"Savon 2994","5630 NORTH DESERT BLVD.","EL PASO","El Paso",NA,NA,NA,200,NA,200,-106.5748486,31.8644686,""
"Life Ambulance Service Inc.","5720 Trowbridge Dr","EL PASO","El Paso",NA,NA,NA,200,NA,200,-106.4191934,31.7809969,""
"Mt West Family Health Center","6151 Dew Dr","EL PASO","El Paso",NA,500,NA,NA,NA,500,-106.5302808,31.8329013,""
"Immunize El Paso - El Paso","6292 Trowbridge Dr","EL PASO","El Paso",NA,NA,NA,1100,NA,1100,-106.4073472,31.7734054,""
"Umc Neighborhood Healthcare Center West","6600 N Desert Blvd","EL PASO","El Paso",NA,500,NA,600,NA,1100,-106.5814432,31.8935311,""
"El Paso Fire Department","6800 Delta","EL PASO","El Paso",NA,900,NA,NA,NA,900,-106.4048401,31.7532832,""
"Savon 3932","7022 N. MESA ST","EL PASO","El Paso",NA,NA,NA,200,NA,200,-106.5516859,31.8371869,""
"Henderson Health Center El Paso","721 S Mesa St","EL PASO","El Paso",NA,NA,100,NA,NA,100,-106.4853602,31.7522567,""
"Dept of Public Health-Remcon","7380 Remcon Circle","EL PASO","El Paso",NA,300,NA,NA,NA,300,-106.562067,31.8390248,""
"Wellmed Management","7430 Remcon Circle","EL PASO","El Paso",NA,NA,NA,100,NA,100,-106.5631949,31.8340106,""
